{
    "-1396183": {
        "country": "España", 
        "lat": 43.054936427428, 
        "lon": -5.39599081541629, 
        "name": "Estación Invernal Fuentes de Invierno", 
        "state": "Asturias"
    }, 
    "-1396184": {
        "country": "España", 
        "lat": 43.0460291215514, 
        "lon": -5.40119666958232, 
        "name": "Estación Invernal y de Montaña San Isidro (Area de Riopinos)", 
        "state": "Castilla y León"
    }, 
    "-1410326": {
        "country": "Norge", 
        "lat": 59.8590424601623, 
        "lon": 10.8286340607324, 
        "name": "Leirskallen skisenter", 
        "state": "Oslo"
    }, 
    "-1462651": {
        "country": "España", 
        "lat": 42.972119248156, 
        "lon": -5.77929543829575, 
        "name": "Estación Invernal y de Montaña Valgrande-Pajares", 
        "state": "Asturias"
    }, 
    "-1463009": {
        "country": "España", 
        "lat": 43.1650098938117, 
        "lon": -3.65906366914299, 
        "name": "Estación de Esquí Lunada", 
        "state": "Castilla y León"
    }, 
    "-2641663": {
        "country": "España", 
        "lat": 43.0365066475305, 
        "lon": -4.38876502771941, 
        "name": "Estación de Esquí y Montaña Alto Campoo", 
        "state": "Cantabria"
    }, 
    "-2684548": {
        "country": "España", 
        "lat": 40.7965327624023, 
        "lon": -3.97196009308955, 
        "name": "Estación de Esquí de Valdesquí", 
        "state": "Comunidad de Madrid"
    }, 
    "-2887337": {
        "country": "România", 
        "lat": 47.669640357996, 
        "lon": 23.7807436866662, 
        "name": "Șuior", 
        "state": "Maramureș"
    }, 
    "-2957907": {
        "country": "Suomi", 
        "lat": 66.7640102471623, 
        "lon": 28.7851252579607, 
        "name": "Salla Ski Resort", 
        "state": "Pohjois-Suomi"
    }, 
    "-3200038": {
        "country": "Suomi", 
        "lat": 68.4268144071256, 
        "lon": 27.4508554840408, 
        "name": "Ski Saariselkä", 
        "state": "Pohjois-Suomi"
    }, 
    "-3478130": {
        "country": "España", 
        "lat": 42.778991194206, 
        "lon": -0.543168129234398, 
        "name": "Estación Invernal de Candanchú", 
        "state": "Aragón"
    }, 
    "-3479356": {
        "country": "España", 
        "lat": 42.8146653663735, 
        "lon": -0.487149105748474, 
        "name": "Estación Invernal de Astún", 
        "state": "Aragón"
    }, 
    "-3497513": {
        "country": "Россия", 
        "lat": 53.390203667588, 
        "lon": 50.1827047400841, 
        "name": "Горнолыжный комплекс \"СОК Красная Глинка\"", 
        "state": "Самарская область"
    }, 
    "-3867443": {
        "country": "France", 
        "lat": 44.1853061414154, 
        "lon": 7.14850146387229, 
        "name": "Isola 2000", 
        "state": "Provence-Alpes-Côte d'Azur"
    }, 
    "-388306": {
        "country": "Slovensko", 
        "lat": 49.057582761156, 
        "lon": 19.2616025560473, 
        "name": "Malinô Brdo", 
        "state": "Žilinský kraj"
    }, 
    "-4107373": {
        "country": "Norge", 
        "lat": 60.6551557205312, 
        "lon": 6.3948859498343, 
        "name": "Voss Resort Fjellheisar", 
        "state": "Hordaland"
    }, 
    "-4288003": {
        "country": "Norge", 
        "lat": 63.3565559780476, 
        "lon": 10.2503228799337, 
        "name": "Ringvål skistadion", 
        "state": "Trøndelag"
    }, 
    "-4429439": {
        "country": "Norge", 
        "lat": 61.2543964551375, 
        "lon": 8.90711486566523, 
        "name": "Beitostølen Skisenter", 
        "state": "Oppland"
    }, 
    "-4640787": {
        "country": "Norge", 
        "lat": 63.3784834, 
        "lon": 10.3028248666667, 
        "name": "Granåsen rekruttsenter", 
        "state": "Trøndelag"
    }, 
    "-4640788": {
        "country": "Norge", 
        "lat": 63.3808585468151, 
        "lon": 10.3073112700783, 
        "name": "Høgåsen", 
        "state": "Trøndelag"
    }, 
    "-4775777": {
        "country": "Canada", 
        "lat": 45.452346469721, 
        "lon": -71.1696826318849, 
        "name": "Parc National du Mont-Mégantic", 
        "state": "Québec"
    }, 
    "-4825669": {
        "country": "Norge", 
        "lat": 60.6658372959545, 
        "lon": 8.52507942232477, 
        "name": "Ål skisenter", 
        "state": "Buskerud"
    }, 
    "-4826190": {
        "country": "Norge", 
        "lat": 60.6968789248064, 
        "lon": 8.28204969844797, 
        "name": "Skarslia Ski- og Akesenter", 
        "state": "Buskerud"
    }, 
    "-5184763": {
        "country": "Norge", 
        "lat": 59.8474986872887, 
        "lon": 6.06585169872389, 
        "name": "Fjellhaugen skisenter", 
        "state": "Hordaland"
    }, 
    "-5206230": {
        "country": "Norge", 
        "lat": 60.3724835783861, 
        "lon": 5.97306060600518, 
        "name": "Furedalen Alpin", 
        "state": "Hordaland"
    }, 
    "-5206584": {
        "country": "Norge", 
        "lat": 60.3856759685436, 
        "lon": 6.00874335724648, 
        "name": "Aktiven Skiheis", 
        "state": "Hordaland"
    }, 
    "-5225810": {
        "country": "Norge", 
        "lat": 60.4100641390965, 
        "lon": 5.90877082038443, 
        "name": "Eikedalen Skisenter", 
        "state": "Hordaland"
    }, 
    "-5314322": {
        "country": "Norge", 
        "lat": 60.4166913, 
        "lon": 7.33663915, 
        "name": "Sysendalen Skisenter", 
        "state": "Hordaland"
    }, 
    "-5341718": {
        "country": "Norge", 
        "lat": 62.96127075, 
        "lon": 8.66506035, 
        "name": "Surnadal alpinsenter", 
        "state": "Møre og Romsdal"
    }, 
    "-5732572": {
        "country": "Norge", 
        "lat": 61.4715312235411, 
        "lon": 5.73657441731907, 
        "name": "Sunnfjord Skisenter", 
        "state": "Sogn og Fjordane"
    }, 
    "-5743184": {
        "country": "Norge", 
        "lat": 61.2930784040431, 
        "lon": 6.98238284409448, 
        "name": "Sogndal Skisenter", 
        "state": "Sogn og Fjordane"
    }, 
    "-5829478": {
        "country": "日本", 
        "lat": 36.778613893345, 
        "lon": 139.117565991272, 
        "name": "川場スキー場", 
        "state": "群馬県"
    }, 
    "-5872300": {
        "country": "Norge", 
        "lat": 61.9262949838795, 
        "lon": 6.69691756465947, 
        "name": "Stryn Vinterski", 
        "state": "Sogn og Fjordane"
    }, 
    "-5875473": {
        "country": "Norge", 
        "lat": 61.33849105, 
        "lon": 7.1996442, 
        "name": "Sogn Skisenter", 
        "state": "Sogn og Fjordane"
    }, 
    "-5894110": {
        "country": "Norge", 
        "lat": 62.7681736908544, 
        "lon": 7.24582547276974, 
        "name": "Tusten Skiheiser", 
        "state": "Møre og Romsdal"
    }, 
    "-5978181": {
        "country": "Suomi", 
        "lat": 67.1491908967751, 
        "lon": 26.8985594491463, 
        "name": "Hiihtokeskus Luosto-Ski", 
        "state": "Pohjois-Suomi"
    }, 
    "-5999002": {
        "country": "Suomi", 
        "lat": 63.0991623311219, 
        "lon": 29.8099129116084, 
        "name": "Ukko-Kolin hiihtokeskus", 
        "state": "Itä-Suomi"
    }, 
    "-6058842": {
        "country": "España", 
        "lat": 40.7890605789616, 
        "lon": -4.00011352487029, 
        "name": "Estación de Esquí Puerto de Navacerrada", 
        "state": "Castilla y León"
    }, 
    "-6177137": {
        "country": "Norge", 
        "lat": 62.341350343448, 
        "lon": 6.7539546761415, 
        "name": "Sunnmørsalpane Skiarena Fjellseter", 
        "state": "Møre og Romsdal"
    }, 
    "-6191717": {
        "country": "Suomi", 
        "lat": 66.7999368959957, 
        "lon": 24.1154406200401, 
        "name": "Ritavalkean laskettelurinne", 
        "state": "Pohjois-Suomi"
    }, 
    "-6250272": {
        "country": "United States of America", 
        "lat": 41.3531393387158, 
        "lon": -75.6593509770315, 
        "name": "Montage Mountain Ski Area", 
        "state": "Pennsylvania"
    }, 
    "-6330379": {
        "country": "Norge", 
        "lat": 62.1588280172352, 
        "lon": 6.14760273258337, 
        "name": "Volda Skisenter", 
        "state": "Møre og Romsdal"
    }, 
    "-6387983": {
        "country": "Norge", 
        "lat": 62.0106441, 
        "lon": 6.546878, 
        "name": "Hornindal Skisenter", 
        "state": "Sogn og Fjordane"
    }, 
    "-6652645": {
        "country": "Suomi", 
        "lat": 67.0259426873879, 
        "lon": 27.2321982423027, 
        "name": "Pyhä Ski Resort", 
        "state": "Pohjois-Suomi"
    }, 
    "-6659826": {
        "country": "Suomi", 
        "lat": 65.6273622575215, 
        "lon": 27.6142106136169, 
        "name": "Hiihtokeskus Iso-Syöte", 
        "state": "Pohjois-Suomi"
    }, 
    "-6704136": {
        "country": "United States of America", 
        "lat": 39.1542321855086, 
        "lon": -120.238199676691, 
        "name": "Alpine Meadows Ski Resort", 
        "state": "California"
    }, 
    "-6855066": {
        "country": "United States of America", 
        "lat": 47.4497514698951, 
        "lon": -121.44745160289, 
        "name": "Alpental Backcountry", 
        "state": "Washington"
    }, 
    "-6855067": {
        "country": "United States of America", 
        "lat": 47.4480563305775, 
        "lon": -121.435797285934, 
        "name": "Alpental", 
        "state": "Washington"
    }, 
    "-6958726": {
        "country": "대한민국", 
        "lat": 37.6527453267452, 
        "lon": 128.672699444111, 
        "name": "알펜시아 스키장", 
        "state": "강원도"
    }, 
    "-6989110": {
        "country": "Italia", 
        "lat": 46.4656746810631, 
        "lon": 11.7447730889673, 
        "name": "Val di Fassa", 
        "state": "Trentino-Alto Adige/Südtirol"
    }, 
    "-6990942": {
        "country": "Italia", 
        "lat": 46.5478657572717, 
        "lon": 12.1386686538916, 
        "name": "Cortina d'Ampezzo", 
        "state": "Veneto"
    }, 
    "-7095958": {
        "country": "United States of America", 
        "lat": 39.2580691878014, 
        "lon": -120.13760523932, 
        "name": "Northstar at Tahoe Resort", 
        "state": "California"
    }, 
    "-7403788": {
        "country": "Slovensko", 
        "lat": 49.09227005, 
        "lon": 19.14435115, 
        "name": "Vyšné Krátke", 
        "state": "Žilinský kraj"
    }, 
    "-7561888": {
        "country": "Norge", 
        "lat": 61.3528900432387, 
        "lon": 10.0756917074348, 
        "name": "Skeikampen Alpinsenter", 
        "state": "Oppland"
    }, 
    "-7609355": {
        "country": "Italia", 
        "lat": 44.1340872843152, 
        "lon": 10.6510693323282, 
        "name": "Area Sciistica Abetone", 
        "state": "Toscana"
    }, 
    "-7632286": {
        "country": "United States of America", 
        "lat": 38.8790198158195, 
        "lon": -106.984138309748, 
        "name": "Crested Butte Nordic", 
        "state": "Colorado"
    }, 
    "-7718003": {
        "country": "Österreich", 
        "lat": 47.2139404291006, 
        "lon": 10.975884143998, 
        "name": "Hochoetz-Kühtai", 
        "state": "Tirol"
    }, 
    "-7720541": {
        "country": "Österreich", 
        "lat": 46.8739307295274, 
        "lon": 10.5357646628516, 
        "name": "Nauders am Reschenpass", 
        "state": "Tirol"
    }, 
    "-7721342": {
        "country": "Österreich", 
        "lat": 47.4890761339632, 
        "lon": 10.4938647781015, 
        "name": "Tannheim-Zöblen-Schattwald", 
        "state": "Tirol"
    }, 
    "-7723005": {
        "country": "Österreich", 
        "lat": 47.423177129741, 
        "lon": 10.7420771069889, 
        "name": "Berwang", 
        "state": "Tirol"
    }, 
    "-7723440": {
        "country": "Österreich", 
        "lat": 47.3451677186869, 
        "lon": 13.3464547169104, 
        "name": "Salzburger Sportwelt", 
        "state": "Salzburg"
    }, 
    "-7736385": {
        "country": "Italia", 
        "lat": 45.914694333042, 
        "lon": 11.2478581712782, 
        "name": "Alpe Cimbra", 
        "state": "Trentino-Alto Adige/Südtirol"
    }, 
    "-7751878": {
        "country": "Italia", 
        "lat": 46.6821772257709, 
        "lon": 12.3143097160928, 
        "name": "Drei Zinnen", 
        "state": "Trentino-Alto Adige/Südtirol"
    }, 
    "-7751891": {
        "country": "Italia", 
        "lat": 46.9534003889345, 
        "lon": 11.9587393739273, 
        "name": "Klausberg Skiarena", 
        "state": "Trentino-Alto Adige/Südtirol"
    }, 
    "-7752047": {
        "country": "Italia", 
        "lat": 46.2683663176585, 
        "lon": 11.7881485817459, 
        "name": "San Martino di Castrozza-Passo Rolle", 
        "state": "Trentino-Alto Adige/Südtirol"
    }, 
    "-7768194": {
        "country": "Österreich", 
        "lat": 47.0603491365433, 
        "lon": 11.2359069804462, 
        "name": "Stubai", 
        "state": "Tirol"
    }, 
    "-7768394": {
        "country": "Norge", 
        "lat": 63.4175967885393, 
        "lon": 10.2539591487544, 
        "name": "Vintervasskleiva", 
        "state": "Trøndelag"
    }, 
    "-7772597": {
        "country": "Österreich", 
        "lat": 47.3667901511458, 
        "lon": 10.2162208618063, 
        "name": "Kleinwalsertal-Oberstdorf", 
        "state": "Vorarlberg"
    }, 
    "-7774759": {
        "country": "Norge", 
        "lat": 58.8386244388913, 
        "lon": 7.47413493293134, 
        "name": "Bortelid Skisenter", 
        "state": "Vest-Agder"
    }, 
    "-7774928": {
        "country": "Norge", 
        "lat": 59.0503322775284, 
        "lon": 8.71812216841995, 
        "name": "Gautefall Skisenter", 
        "state": "Telemark"
    }, 
    "-7787512": {
        "country": "Česko", 
        "lat": 50.3630099939866, 
        "lon": 12.9064322689908, 
        "name": "Skiareál Náprava", 
        "state": "Severozápad"
    }, 
    "-7819836": {
        "country": "Slovensko", 
        "lat": 48.8459021127046, 
        "lon": 20.2132376106384, 
        "name": "Ski Telgárt", 
        "state": "Banskobystrický kraj"
    }, 
    "-7946537": {
        "country": "Россия", 
        "lat": 55.8561950907195, 
        "lon": 37.3925218794251, 
        "name": "Горнолыжный склон \"ТРЦ Вейпарк\"", 
        "state": "Московская область"
    }, 
    "-7998346": {
        "country": "Österreich", 
        "lat": 47.0469652404143, 
        "lon": 10.6877456653921, 
        "name": "Fendels", 
        "state": "Tirol"
    }, 
    "-8027590": {
        "country": "Canada", 
        "lat": 47.2882133788935, 
        "lon": -70.5968535825185, 
        "name": "Le Massif", 
        "state": "Québec"
    }, 
    "-8175222": {
        "country": "Россия", 
        "lat": 46.9635613237096, 
        "lon": 142.762280497223, 
        "name": "Школа зимних видов спорта", 
        "state": "Сахалинская область"
    }, 
    "-8175237": {
        "country": "Россия", 
        "lat": 46.9722440153679, 
        "lon": 142.756205641362, 
        "name": "Парковая гора", 
        "state": "Сахалинская область"
    }, 
    "-8175983": {
        "country": "Россия", 
        "lat": 51.8270679303498, 
        "lon": 39.2731841283637, 
        "name": "Горнолыжный клуб “Чертовицы”", 
        "state": "Воронежская область"
    }, 
    "-8359960": {
        "country": "Norge", 
        "lat": 59.2757031156916, 
        "lon": 9.67466398094699, 
        "name": "Siljan skisenter", 
        "state": "Telemark"
    }, 
    "-8361489": {
        "country": "Suomi", 
        "lat": 67.5561146739626, 
        "lon": 24.2389040452901, 
        "name": "Sport Resort Ylläs", 
        "state": "Pohjois-Suomi"
    }, 
    "-8385428": {
        "country": "日本", 
        "lat": 42.8738946, 
        "lon": 140.59453325, 
        "name": "チセヌプリスキー場", 
        "state": "北海道"
    }, 
    "-8385446": {
        "country": "日本", 
        "lat": 42.8552276391765, 
        "lon": 140.632132216017, 
        "name": "ニセコモイワスキー場", 
        "state": "北海道"
    }, 
    "-8386553": {
        "country": "日本", 
        "lat": 43.3323949040512, 
        "lon": 142.341321133757, 
        "name": "富良野スキー場", 
        "state": "北海道"
    }, 
    "-8391726": {
        "country": "United States of America", 
        "lat": 39.0779403776623, 
        "lon": -120.172379067861, 
        "name": "Homewood Ski Area", 
        "state": "California"
    }, 
    "-8446459": {
        "country": "Suomi", 
        "lat": 68.0540599788913, 
        "lon": 24.0456422753466, 
        "name": "Hiihtokeskus Pallas", 
        "state": "Pohjois-Suomi"
    }, 
    "103278112": {
        "country": "日本", 
        "lat": 35.9489265381006, 
        "lon": 137.67550134901, 
        "name": "きそふくしまスキー場", 
        "state": "長野県"
    }, 
    "103280609": {
        "country": "日本", 
        "lat": 36.3152901076226, 
        "lon": 137.236847563672, 
        "name": "スターシュプール飛騨流葉スキー場", 
        "state": "岐阜県"
    }, 
    "104293575": {
        "country": "Česko", 
        "lat": 50.2906506, 
        "lon": 16.34965415, 
        "name": "Start", 
        "state": "Severovýchod"
    }, 
    "107221503": {
        "country": "Polska", 
        "lat": 50.9038982731269, 
        "lon": 15.3160580886289, 
        "name": "nartostrada", 
        "state": "województwo dolnośląskie"
    }, 
    "123077288": {
        "country": "Norge", 
        "lat": 63.3769845010223, 
        "lon": 10.308476259242, 
        "name": "Granåsen hoppbakke", 
        "state": "Trøndelag"
    }, 
    "125587795": {
        "country": "Norge", 
        "lat": 63.362392, 
        "lon": 10.3354061, 
        "name": "Saupstad skileik", 
        "state": "Trøndelag"
    }, 
    "131472290": {
        "country": "Norge", 
        "lat": 63.3897587178065, 
        "lon": 10.3144006832225, 
        "name": "Haukvatnet skianlegg", 
        "state": "Trøndelag"
    }, 
    "134469057": {
        "country": "Italia", 
        "lat": 45.8436271241902, 
        "lon": 7.62425681553946, 
        "name": "Chamois", 
        "state": "Valle d'Aosta/Vallée d'Aoste"
    }, 
    "144869848": {
        "country": "Бългaрия", 
        "lat": 41.7013871620511, 
        "lon": 24.6762745596987, 
        "name": "Чепеларе", 
        "state": ""
    }, 
    "144870143": {
        "country": "Suomi", 
        "lat": 60.8636720532165, 
        "lon": 26.7377696384927, 
        "name": "Mielakan Rinnekeskus", 
        "state": "Etelä-Suomi"
    }, 
    "145115638": {
        "country": "Россия", 
        "lat": 61.1572005179397, 
        "lon": 73.5000887865003, 
        "name": "Каменный мыс", 
        "state": "Ханты-Мансийский автономный округ - Югра"
    }, 
    "147037315": {
        "country": "United States of America", 
        "lat": 46.7550640089251, 
        "lon": -112.32505092546, 
        "name": "Great Divide Ski Area", 
        "state": "Montana"
    }, 
    "147563872": {
        "country": "United States of America", 
        "lat": 42.2023704702953, 
        "lon": -88.2067205200503, 
        "name": "Norge Ski Club", 
        "state": "Illinois"
    }, 
    "147981786": {
        "country": "Norge", 
        "lat": 63.2622928797414, 
        "lon": 9.73857902765208, 
        "name": "Knyken Skisenter", 
        "state": "Trøndelag"
    }, 
    "148844823": {
        "country": "Россия", 
        "lat": 57.7564180934985, 
        "lon": 27.8241118144212, 
        "name": "Горнолыжный комплекс \"Мальская долина\"", 
        "state": "Псковская область"
    }, 
    "156838237": {
        "country": "Česko", 
        "lat": 49.5766768872985, 
        "lon": 16.0541727761242, 
        "name": "Sportovní areál", 
        "state": "Jihovýchod"
    }, 
    "157316176": {
        "country": "Россия", 
        "lat": 55.6775178910969, 
        "lon": 37.6118145157851, 
        "name": "Спорткомплекс Кант", 
        "state": "Москва"
    }, 
    "158255886": {
        "country": "Norge", 
        "lat": 60.4585849160353, 
        "lon": 10.6352351867568, 
        "name": "Lygna skisenter", 
        "state": "Oppland"
    }, 
    "159526032": {
        "country": "Polska", 
        "lat": 53.4859082971103, 
        "lon": 14.5230568351728, 
        "name": "Gubałówka", 
        "state": "województwo zachodniopomorskie"
    }, 
    "161410035": {
        "country": "日本", 
        "lat": 35.9286029739469, 
        "lon": 137.513007573947, 
        "name": "開田高原マイアスキー場", 
        "state": "長野県"
    }, 
    "163951593": {
        "country": "España", 
        "lat": 42.1903466901266, 
        "lon": -3.30660957015228, 
        "name": "Estación de Esquí Valle del Sol", 
        "state": "Castilla y León"
    }, 
    "168062360": {
        "country": "Canada", 
        "lat": 49.5137808308565, 
        "lon": -123.607291000695, 
        "name": "Dakota Ridge Recreation Site", 
        "state": "British Columbia"
    }, 
    "172044512": {
        "country": "Ελλάδα", 
        "lat": 39.3905263828314, 
        "lon": 23.0884716619319, 
        "name": "Χιονοδρομικό Κέντρο Πηλίου Αγριόλευκες", 
        "state": "Θεσσαλία - Στερεά Ελλάδα"
    }, 
    "172593585": {
        "country": "日本", 
        "lat": 43.7577678953896, 
        "lon": 142.299087566799, 
        "name": "サンタプレゼントパーク", 
        "state": "北海道"
    }, 
    "178133225": {
        "country": "Australia", 
        "lat": -36.4057215197659, 
        "lon": 148.385464743236, 
        "name": "Perisher", 
        "state": "New South Wales"
    }, 
    "178706604": {
        "country": "España", 
        "lat": 43.0453439775455, 
        "lon": -5.38655064530402, 
        "name": "Estación Invernal y de Montaña San Isidro (Sector Cebolledo y Requejines)", 
        "state": "Castilla y León"
    }, 
    "179592377": {
        "country": "Österreich", 
        "lat": 47.1246708, 
        "lon": 15.5635473, 
        "name": "Wimmerlift", 
        "state": "Steiermark"
    }, 
    "184326663": {
        "country": "United States of America", 
        "lat": 39.682057219393, 
        "lon": -105.879282958224, 
        "name": "Loveland Valley Ski Area", 
        "state": "Colorado"
    }, 
    "184326673": {
        "country": "United States of America", 
        "lat": 39.6771947665021, 
        "lon": -105.908709792148, 
        "name": "Loveland Basin Ski Area", 
        "state": "Colorado"
    }, 
    "189121765": {
        "country": "Norge", 
        "lat": 59.8841804216661, 
        "lon": 8.73645354802927, 
        "name": "Gaustablikk Skisenter", 
        "state": "Telemark"
    }, 
    "190434581": {
        "country": "Suomi", 
        "lat": 60.7159171448013, 
        "lon": 26.4103811246347, 
        "name": "Haukkavuoren laskettelurinne", 
        "state": "Etelä-Suomi"
    }, 
    "190873472": {
        "country": "Slovensko", 
        "lat": 48.956131335174, 
        "lon": 19.5898902316932, 
        "name": "Chopok Jasná", 
        "state": "Žilinský kraj"
    }, 
    "190873473": {
        "country": "Slovensko", 
        "lat": 48.9324019325658, 
        "lon": 19.5914281377218, 
        "name": "Chopok Juh", 
        "state": "Banskobystrický kraj"
    }, 
    "190873659": {
        "country": "Slovensko", 
        "lat": 48.734334935481, 
        "lon": 18.9838665586078, 
        "name": "Skalka", 
        "state": "Banskobystrický kraj"
    }, 
    "190873713": {
        "country": "Slovensko", 
        "lat": 48.3452388002652, 
        "lon": 17.1911996949599, 
        "name": "Pezinská Baba", 
        "state": "Bratislavský kraj"
    }, 
    "190874707": {
        "country": "Slovensko", 
        "lat": 48.7311847144382, 
        "lon": 18.9453387419563, 
        "name": "Krahule", 
        "state": "Banskobystrický kraj"
    }, 
    "190874905": {
        "country": "Slovensko", 
        "lat": 48.8017587195709, 
        "lon": 19.1537662135885, 
        "name": "Šachtičky", 
        "state": "Banskobystrický kraj"
    }, 
    "190875417": {
        "country": "Slovensko", 
        "lat": 48.8781966586981, 
        "lon": 19.2283185854508, 
        "name": "Donovaly", 
        "state": "Banskobystrický kraj"
    }, 
    "190876155": {
        "country": "Slovensko", 
        "lat": 49.4146110393009, 
        "lon": 18.9286233477778, 
        "name": "Veľká Rača", 
        "state": "Žilinský kraj"
    }, 
    "190876251": {
        "country": "Slovensko", 
        "lat": 49.1302359649445, 
        "lon": 20.0488956207124, 
        "name": "Štrbské Pleso", 
        "state": "Prešovský kraj"
    }, 
    "193063318": {
        "country": "Україна", 
        "lat": 48.9013512628277, 
        "lon": 23.287283815817, 
        "name": "Гірськолижний комплекс \"Плай\"", 
        "state": "Львівська область"
    }, 
    "194973300": {
        "country": "España", 
        "lat": 43.0560220852562, 
        "lon": -5.38108517408383, 
        "name": "Estación Invernal y de Montaña San Isidro (Sector Saliencias)", 
        "state": "Castilla y León"
    }, 
    "198949537": {
        "country": "日本", 
        "lat": 37.3477261549622, 
        "lon": 139.30774771915, 
        "name": "町営只見スキー場", 
        "state": "福島県"
    }, 
    "199613905": {
        "country": "Slovensko", 
        "lat": 48.7715584545341, 
        "lon": 20.983579246948, 
        "name": "Skipark Erika", 
        "state": "Košický kraj"
    }, 
    "199829499": {
        "country": "日本", 
        "lat": 45.0762471065457, 
        "lon": 141.841820213502, 
        "name": "豊富町温泉スキー場", 
        "state": "北海道"
    }, 
    "203011417": {
        "country": "Česko", 
        "lat": 49.6117106614935, 
        "lon": 18.5804343455336, 
        "name": "Ski areal Řeka", 
        "state": "Moravskoslezsko"
    }, 
    "204687968": {
        "country": "Україна", 
        "lat": 48.2025291340249, 
        "lon": 26.1859789802998, 
        "name": "Горбова", 
        "state": "Чернівецька область"
    }, 
    "204916579": {
        "country": "Бългaрия", 
        "lat": 42.0053241040976, 
        "lon": 24.6899421310769, 
        "name": "писта х. \"Здравец\" - голяма", 
        "state": ""
    }, 
    "204916580": {
        "country": "Бългaрия", 
        "lat": 42.0035191725761, 
        "lon": 24.6932768010163, 
        "name": "писта х. \"Здравец\" - малка", 
        "state": ""
    }, 
    "207381047": {
        "country": "Deutschland", 
        "lat": 51.11392095, 
        "lon": 7.6243789, 
        "name": "Skiarena Hahnenbecke", 
        "state": "Nordrhein-Westfalen"
    }, 
    "211666952": {
        "country": "Norge", 
        "lat": 60.4005784, 
        "lon": 9.9992872, 
        "name": "Ringerudsetra Skitrekk", 
        "state": "Buskerud"
    }, 
    "211675617": {
        "country": "Slovensko", 
        "lat": 49.041065152839, 
        "lon": 19.6394708997434, 
        "name": "Závažná Poruba - Opalisko", 
        "state": "Žilinský kraj"
    }, 
    "211914031": {
        "country": "Россия", 
        "lat": 55.8814108605793, 
        "lon": 37.3870492526706, 
        "name": "Русская горнолыжная школа \"Столица\"", 
        "state": "Москва"
    }, 
    "212365244": {
        "country": "Norge", 
        "lat": 69.9738242223472, 
        "lon": 23.2761946454531, 
        "name": "Akebakken i Komsa", 
        "state": "Finnmark"
    }, 
    "215697985": {
        "country": "United States of America", 
        "lat": 42.5418584530589, 
        "lon": -71.4493607231198, 
        "name": "Nashoba Valley Ski Area", 
        "state": "Massachusetts"
    }, 
    "220398965": {
        "country": "France", 
        "lat": 45.5806878616587, 
        "lon": 6.64875182178844, 
        "name": "Granier-sur-Aime", 
        "state": "Auvergne-Rhône-Alpes"
    }, 
    "224610062": {
        "country": "대한민국", 
        "lat": 37.7966800026214, 
        "lon": 127.252566750461, 
        "name": "베어스타운리조트 (Bears Town Resort)", 
        "state": "경기도"
    }, 
    "225815861": {
        "country": "France", 
        "lat": 48.0520452388216, 
        "lon": 6.90468658155015, 
        "name": "Station de Ski Alpin de Gérardmer", 
        "state": "Grand Est"
    }, 
    "226619846": {
        "country": "Россия", 
        "lat": 60.1086972761665, 
        "lon": 30.3132348394535, 
        "name": "Спортивный комплекс \"Юкки\" ГАУ ЛО \"Спортивно-тренировочный центр Ленинградской области\"", 
        "state": "Ленинградская область"
    }, 
    "228386953": {
        "country": "Magyarország", 
        "lat": 47.7978007445575, 
        "lon": 18.9905248432349, 
        "name": "Nagyvillám Sípálya Visegrád", 
        "state": "Közép-Magyarország"
    }, 
    "22923382": {
        "country": "Norge", 
        "lat": 63.2640507327525, 
        "lon": 10.3804508824226, 
        "name": "Vassfjellet skisenter", 
        "state": "Trøndelag"
    }, 
    "233886400": {
        "country": "Canada", 
        "lat": 44.9360459893094, 
        "lon": -64.1707868064044, 
        "name": "Ski Martock", 
        "state": "Nova Scotia"
    }, 
    "237486523": {
        "country": "Suomi", 
        "lat": 68.4296384226405, 
        "lon": 27.4713575821684, 
        "name": "Ski Saariselkä", 
        "state": "Pohjois-Suomi"
    }, 
    "23879763": {
        "country": "Россия", 
        "lat": 55.6353069162723, 
        "lon": 37.8546285070561, 
        "name": "Экстремальный парк \"Фристайл\"", 
        "state": "Московская область"
    }, 
    "242382005": {
        "country": "United States of America", 
        "lat": 38.1905434150415, 
        "lon": -119.9374631413, 
        "name": "Dodge Ridge Ski Area", 
        "state": "California"
    }, 
    "24602606": {
        "country": "Norge", 
        "lat": 63.4156827465076, 
        "lon": 10.3396687609959, 
        "name": "Byåsbakken", 
        "state": "Trøndelag"
    }, 
    "247001296": {
        "country": "Россия", 
        "lat": 54.98906105, 
        "lon": 86.9555604, 
        "name": "горнолыжный комплекс \"Зеленогорский\"", 
        "state": "Кемеровская область"
    }, 
    "251260219": {
        "country": "United States of America", 
        "lat": 44.2478205989592, 
        "lon": -71.2283459338838, 
        "name": "Wildcat Mountain", 
        "state": "New Hampshire"
    }, 
    "252602840": {
        "country": "日本", 
        "lat": 39.1890158598018, 
        "lon": 140.085605873645, 
        "name": "鳥海高原矢島スキー場", 
        "state": "秋田県"
    }, 
    "253071356": {
        "country": "Polska", 
        "lat": 49.2814784518223, 
        "lon": 19.9864486914782, 
        "name": "Centrum Szkoleń Narciarskich NOSAL", 
        "state": "województwo małopolskie"
    }, 
    "254046885": {
        "country": "Česko", 
        "lat": 50.0617049, 
        "lon": 17.3603153, 
        "name": "Annaberg", 
        "state": "Moravskoslezsko"
    }, 
    "255571392": {
        "country": "United States of America", 
        "lat": 44.9415297685953, 
        "lon": -70.5221992422096, 
        "name": "Saddleback Mountain Ski Area", 
        "state": "Maine"
    }, 
    "255672857": {
        "country": "Česko", 
        "lat": 50.0767929267188, 
        "lon": 17.3119452179354, 
        "name": "Sedlář", 
        "state": "Moravskoslezsko"
    }, 
    "256024127": {
        "country": "United States of America", 
        "lat": 44.073672202721, 
        "lon": -71.235431206782, 
        "name": "Attitash Mountain Resort", 
        "state": "New Hampshire"
    }, 
    "256241737": {
        "country": "United States of America", 
        "lat": 42.2914378244279, 
        "lon": -74.2561916645926, 
        "name": "Windham Mountain Ski Area", 
        "state": "New York"
    }, 
    "256401232": {
        "country": "日本", 
        "lat": 42.9501021761602, 
        "lon": 141.276132670313, 
        "name": "フッズスノーエリア", 
        "state": "北海道"
    }, 
    "257625735": {
        "country": "日本", 
        "lat": 35.9730353209899, 
        "lon": 136.809858551354, 
        "name": "ウィングヒルズ白鳥リゾート", 
        "state": "岐阜県"
    }, 
    "258880201": {
        "country": "United Kingdom", 
        "lat": 56.6196124320242, 
        "lon": -4.84096294437584, 
        "name": "Glencoe Mountain Resort", 
        "state": "Scotland"
    }, 
    "259264549": {
        "country": "Italia", 
        "lat": 44.1247222192241, 
        "lon": 10.8177887713255, 
        "name": "Comprensorio del Corno alle Scale", 
        "state": "Emilia-Romagna"
    }, 
    "259405042": {
        "country": "España", 
        "lat": 42.0380280435521, 
        "lon": -2.78289105905159, 
        "name": "Punto de Nieve Santa Inés", 
        "state": "Castilla y León"
    }, 
    "259626946": {
        "country": "Slovensko", 
        "lat": 49.27950915, 
        "lon": 20.2325841, 
        "name": "Ski Centrum Strachan", 
        "state": "Prešovský kraj"
    }, 
    "259626948": {
        "country": "Slovensko", 
        "lat": 49.2711676114621, 
        "lon": 20.2269367901949, 
        "name": "Strednica", 
        "state": "Prešovský kraj"
    }, 
    "259908619": {
        "country": "日本", 
        "lat": 35.9386772408515, 
        "lon": 137.482649640735, 
        "name": "チャオ御岳スノーリゾート", 
        "state": "岐阜県"
    }, 
    "260676545": {
        "country": "Česko", 
        "lat": 49.1051664, 
        "lon": 17.3381604, 
        "name": "sjezdovka Břestek", 
        "state": "Střední Morava"
    }, 
    "262416803": {
        "country": "United States of America", 
        "lat": 39.1457747330449, 
        "lon": -84.8876991277027, 
        "name": "Perfect North Slopes", 
        "state": "Indiana"
    }, 
    "263255976": {
        "country": "Suomi", 
        "lat": 60.6261747697002, 
        "lon": 27.0631147035874, 
        "name": "Uuperinrinteet", 
        "state": "Etelä-Suomi"
    }, 
    "263348078": {
        "country": "Suomi", 
        "lat": 66.1047096792204, 
        "lon": 28.2924066721271, 
        "name": "Kiririnteet", 
        "state": "Pohjois-Suomi"
    }, 
    "263378346": {
        "country": "Suomi", 
        "lat": 64.740539138061, 
        "lon": 28.2533948438064, 
        "name": "Hiihtokeskus Ukkohalla", 
        "state": "Itä-Suomi"
    }, 
    "265428130": {
        "country": "Кыргызстан", 
        "lat": 42.6438551982764, 
        "lon": 74.7964600457572, 
        "name": "горнолыжная база \"НОРУС\"", 
        "state": "Чуйская область"
    }, 
    "26582448": {
        "country": "Deutschland", 
        "lat": 49.4443398864797, 
        "lon": 10.3043981129978, 
        "name": "Skilift Burgbernheim", 
        "state": "Bayern"
    }, 
    "266484152": {
        "country": "United States of America", 
        "lat": 48.3920073977749, 
        "lon": -119.919087943007, 
        "name": "Loup Loup Ski Bowl", 
        "state": "Washington"
    }, 
    "266933513": {
        "country": "United States of America", 
        "lat": 44.7689831989038, 
        "lon": -85.6649787865051, 
        "name": "Hickory Hills", 
        "state": "Michigan"
    }, 
    "27153705": {
        "country": "España", 
        "lat": 42.5612956985558, 
        "lon": 0.556855600026771, 
        "name": "Estación de Esquí de Aramón Cerler", 
        "state": "Aragón"
    }, 
    "27163365": {
        "country": "España", 
        "lat": 42.7704008252434, 
        "lon": -0.399169882566518, 
        "name": "Estación de Esquí Aramón Formigal", 
        "state": "Aragón"
    }, 
    "27163382": {
        "country": "España", 
        "lat": 42.7056148832644, 
        "lon": -0.264453303163761, 
        "name": "Estación de Esquí Aramón Panticosa", 
        "state": "Aragón"
    }, 
    "274760684": {
        "country": "New Zealand/Aotearoa", 
        "lat": -43.1550140980245, 
        "lon": 171.66438460208, 
        "name": "Mt Cheeseman Ski Area", 
        "state": "Canterbury"
    }, 
    "274760685": {
        "country": "New Zealand/Aotearoa", 
        "lat": -43.121814478257, 
        "lon": 171.685986798211, 
        "name": "Broken River Ski Area", 
        "state": "Canterbury"
    }, 
    "274760686": {
        "country": "New Zealand/Aotearoa", 
        "lat": -43.1111945176413, 
        "lon": 171.69858386766, 
        "name": "Craigieburn Valley Ski Area", 
        "state": "Canterbury"
    }, 
    "2754619": {
        "country": "France", 
        "lat": 45.627701145158, 
        "lon": 2.87437663801904, 
        "name": "Domaine Nordique de Pessade", 
        "state": "Auvergne-Rhône-Alpes"
    }, 
    "2764548": {
        "country": "France", 
        "lat": 46.818826621819, 
        "lon": 6.41728374769706, 
        "name": "Les Fourgs", 
        "state": "Bourgogne-Franche-Comté"
    }, 
    "2783292": {
        "country": "France", 
        "lat": 46.7740642222082, 
        "lon": 6.20252284200751, 
        "name": "Domaine Nordique Haute-Joux Combe Noire", 
        "state": "Bourgogne-Franche-Comté"
    }, 
    "2783322": {
        "country": "Schweiz/Suisse/Svizzera/Svizra", 
        "lat": 46.8324674647473, 
        "lon": 6.46130892217047, 
        "name": "Centre nordique de l'Auberson", 
        "state": "Vaud"
    }, 
    "2783334": {
        "country": "Schweiz/Suisse/Svizzera/Svizra", 
        "lat": 46.6648049702365, 
        "lon": 6.27873477654295, 
        "name": "Les Charbonnières - Le Lieu", 
        "state": "Vaud"
    }, 
    "2783351": {
        "country": "France", 
        "lat": 46.6594462066509, 
        "lon": 6.17866044779664, 
        "name": "Site nordique de Mouthe - Chez Liadet", 
        "state": "Bourgogne-Franche-Comté"
    }, 
    "278923089": {
        "country": "United States of America", 
        "lat": 42.8288288188697, 
        "lon": -83.5651951622008, 
        "name": "Mt. Holly Ski & Snowboard Resort", 
        "state": "Michigan"
    }, 
    "278929769": {
        "country": "United States of America", 
        "lat": 42.7438396131364, 
        "lon": -83.3671223089348, 
        "name": "Pine Knob Ski and Snowboard Resort", 
        "state": "Michigan"
    }, 
    "278930064": {
        "country": "United States of America", 
        "lat": 42.6541275284779, 
        "lon": -83.5237259785067, 
        "name": "Alpine Valley Ski Area", 
        "state": "Michigan"
    }, 
    "2798243": {
        "country": "France", 
        "lat": 45.0284198523929, 
        "lon": 5.49394658759549, 
        "name": "Espace Nordique du Haut vercors", 
        "state": "Auvergne-Rhône-Alpes"
    }, 
    "2798246": {
        "country": "France", 
        "lat": 45.1055618714246, 
        "lon": 5.58793690860277, 
        "name": "Lans en Vercors", 
        "state": "Auvergne-Rhône-Alpes"
    }, 
    "2801725": {
        "country": "France", 
        "lat": 45.1268733149324, 
        "lon": 5.50960603232964, 
        "name": "Méaudre", 
        "state": "Auvergne-Rhône-Alpes"
    }, 
    "2801730": {
        "country": "France", 
        "lat": 45.2068787235929, 
        "lon": 5.5691294437305, 
        "name": "Autrans", 
        "state": "Auvergne-Rhône-Alpes"
    }, 
    "281594168": {
        "country": "United States of America", 
        "lat": 40.4749026654321, 
        "lon": -75.629807953593, 
        "name": "Bear Creek Mountain Resort Ski Slopes", 
        "state": "Pennsylvania"
    }, 
    "2829056": {
        "country": "United States of America", 
        "lat": 34.8127280654231, 
        "lon": -119.122726781834, 
        "name": "Mount Pinos Winter Sports Area", 
        "state": "California"
    }, 
    "2868907": {
        "country": "France", 
        "lat": 45.6180020902095, 
        "lon": 2.81454726007178, 
        "name": "Domaine Nordique de Guéry", 
        "state": "Auvergne-Rhône-Alpes"
    }, 
    "28707473": {
        "country": "Argentina", 
        "lat": -41.1677928163054, 
        "lon": -71.4644950101452, 
        "name": "Cerro Catedral", 
        "state": "Río Negro"
    }, 
    "2873910": {
        "country": "France", 
        "lat": 42.8441883003174, 
        "lon": -0.156103711446112, 
        "name": "Cauterets Pont d'Espagne", 
        "state": "Occitanie"
    }, 
    "2877788": {
        "country": "France", 
        "lat": 42.97037020126, 
        "lon": 0.00247784256248894, 
        "name": "Hautacam", 
        "state": "Occitanie"
    }, 
    "2877789": {
        "country": "France", 
        "lat": 42.8847751711121, 
        "lon": -0.0696654041816691, 
        "name": "Luz-Ardiden", 
        "state": "Occitanie"
    }, 
    "2878966": {
        "country": "France", 
        "lat": 42.7242396622311, 
        "lon": -0.0387826163911822, 
        "name": "Gavarnie-Gèdre", 
        "state": "Occitanie"
    }, 
    "28798772": {
        "country": "Deutschland", 
        "lat": 50.3757657558329, 
        "lon": 11.5030920494248, 
        "name": "Skiabfahrt Nordhalben", 
        "state": "Bayern"
    }, 
    "2881648": {
        "country": "France", 
        "lat": 42.7800540991268, 
        "lon": 0.460194167018944, 
        "name": "Peyragudes", 
        "state": "Occitanie"
    }, 
    "2883644": {
        "country": "France", 
        "lat": 42.8849987943423, 
        "lon": -0.152595093582945, 
        "name": "Cauterets Cirque du Lys", 
        "state": "Occitanie"
    }, 
    "2899124": {
        "country": "Schweiz/Suisse/Svizzera/Svizra", 
        "lat": 46.8607610138346, 
        "lon": 6.59348863851872, 
        "name": "Sainte-Croix - Les rasses", 
        "state": "Vaud"
    }, 
    "2900833": {
        "country": "France", 
        "lat": 42.8573348614165, 
        "lon": 0.494421567291208, 
        "name": "Bourg d'Oueil", 
        "state": "Occitanie"
    }, 
    "290283443": {
        "country": "日本", 
        "lat": 44.4091193021917, 
        "lon": 142.513559096454, 
        "name": "ピヤシリスキー場", 
        "state": "北海道"
    }, 
    "29030997": {
        "country": "Россия", 
        "lat": 53.5912591864386, 
        "lon": 58.5684381830311, 
        "name": "ГЛЦ Металлург-Магнитогорск", 
        "state": "Башкортостан"
    }, 
    "291469633": {
        "country": "日本", 
        "lat": 44.0371937333333, 
        "lon": 142.418156033333, 
        "name": "和寒東山スキー場", 
        "state": "北海道"
    }, 
    "29153425": {
        "country": "Italia", 
        "lat": 46.5080663444514, 
        "lon": 12.93334054051, 
        "name": "Zoncolan", 
        "state": "Friuli Venezia Giulia"
    }, 
    "29188395": {
        "country": "Österreich", 
        "lat": 47.0687870644325, 
        "lon": 13.6381780631688, 
        "name": "Katschberg-Aineck", 
        "state": "Salzburg"
    }, 
    "292433765": {
        "country": "Suomi", 
        "lat": 60.92959684824, 
        "lon": 24.5976766479949, 
        "name": "Kalpalinna", 
        "state": "Etelä-Suomi"
    }, 
    "2924625": {
        "country": "France", 
        "lat": 42.9054995848077, 
        "lon": 0.771405754897322, 
        "name": "Le Mourtis", 
        "state": "Occitanie"
    }, 
    "2924626": {
        "country": "France", 
        "lat": 42.7697604204454, 
        "lon": 0.569195067182075, 
        "name": "Superbagnères", 
        "state": "Occitanie"
    }, 
    "2924735": {
        "country": "España", 
        "lat": 42.7098227815793, 
        "lon": 0.971776905944542, 
        "name": "Baqueira-Beret", 
        "state": "Catalunya"
    }, 
    "2924760": {
        "country": "France", 
        "lat": 42.7775581062604, 
        "lon": 1.30671366471047, 
        "name": "Guzet-Neige", 
        "state": "Occitanie"
    }, 
    "2926602": {
        "country": "France", 
        "lat": 42.7838256392644, 
        "lon": 0.382989510278274, 
        "name": "Val-Louron", 
        "state": "Occitanie"
    }, 
    "2926613": {
        "country": "France", 
        "lat": 42.8278302091582, 
        "lon": 0.255633383274212, 
        "name": "Saint-Lary", 
        "state": "Occitanie"
    }, 
    "2926634": {
        "country": "France", 
        "lat": 42.7778226957494, 
        "lon": 0.15767658927391, 
        "name": "Piau-Engaly", 
        "state": "Occitanie"
    }, 
    "2927134": {
        "country": "España", 
        "lat": 42.5611967918673, 
        "lon": 0.557008414780199, 
        "name": "Cerler", 
        "state": "Aragón"
    }, 
    "2927196": {
        "country": "France", 
        "lat": 42.9044082845305, 
        "lon": 0.132303542449186, 
        "name": "Grand Tourmalet", 
        "state": "Occitanie"
    }, 
    "2927215": {
        "country": "France", 
        "lat": 42.6845526996225, 
        "lon": 1.80900601616067, 
        "name": "Ax-Bonascre", 
        "state": "Occitanie"
    }, 
    "2928027": {
        "country": "España", 
        "lat": 42.4705963109744, 
        "lon": 0.875170110932712, 
        "name": "Boí Taüll", 
        "state": "Catalunya"
    }, 
    "29291121": {
        "country": "Deutschland", 
        "lat": 48.4749680843416, 
        "lon": 8.29897887444794, 
        "name": "Skistadion Kniebis", 
        "state": "Baden-Württemberg"
    }, 
    "2935724": {
        "country": "France", 
        "lat": 42.5500783886052, 
        "lon": 1.79901283243488, 
        "name": "Porté-Puymorens", 
        "state": "Occitanie"
    }, 
    "29406936": {
        "country": "Deutschland", 
        "lat": 48.1059504613799, 
        "lon": 8.19528272973689, 
        "name": "Adlerschanzen", 
        "state": "Baden-Württemberg"
    }, 
    "29463355": {
        "country": "Österreich", 
        "lat": 46.5776176655111, 
        "lon": 13.2680807181947, 
        "name": "Nassfeld", 
        "state": "Kärnten"
    }, 
    "2946722": {
        "country": "France", 
        "lat": 42.5734187752568, 
        "lon": 2.05466360388583, 
        "name": "Les Angles", 
        "state": "Occitanie"
    }, 
    "2946754": {
        "country": "France", 
        "lat": 42.5287978321329, 
        "lon": 2.03648740475949, 
        "name": "Font-Romeu", 
        "state": "Occitanie"
    }, 
    "2946764": {
        "country": "España", 
        "lat": 42.7728516797251, 
        "lon": -0.404279276709726, 
        "name": "Formigal", 
        "state": "Aragón"
    }, 
    "294826109": {
        "country": "France", 
        "lat": 45.2427567559762, 
        "lon": 5.98929436386093, 
        "name": "Domaine de Beldina", 
        "state": "Auvergne-Rhône-Alpes"
    }, 
    "294826110": {
        "country": "France", 
        "lat": 45.2576440444418, 
        "lon": 6.02548361804513, 
        "name": "Les 7 Laux", 
        "state": "Auvergne-Rhône-Alpes"
    }, 
    "294837783": {
        "country": "France", 
        "lat": 45.3265312390832, 
        "lon": 6.05265401755002, 
        "name": "Stade des Neiges du Barioz", 
        "state": "Auvergne-Rhône-Alpes"
    }, 
    "294837800": {
        "country": "France", 
        "lat": 45.3234036290922, 
        "lon": 6.05397708881094, 
        "name": "Domaine du Barioz", 
        "state": "Auvergne-Rhône-Alpes"
    }, 
    "294930896": {
        "country": "France", 
        "lat": 45.954206211729, 
        "lon": 6.74936006928436, 
        "name": "Passy - Plaine Joux", 
        "state": "Auvergne-Rhône-Alpes"
    }, 
    "294934330": {
        "country": "France", 
        "lat": 46.0169838008958, 
        "lon": 6.91597096364776, 
        "name": "La Poya", 
        "state": "Auvergne-Rhône-Alpes"
    }, 
    "294937387": {
        "country": "France", 
        "lat": 45.3465401999321, 
        "lon": 5.90193158205558, 
        "name": "Col de Marcieu", 
        "state": "Auvergne-Rhône-Alpes"
    }, 
    "294939838": {
        "country": "France", 
        "lat": 45.3948521364079, 
        "lon": 6.12939352491277, 
        "name": "Le Collet d'Allevard", 
        "state": "Auvergne-Rhône-Alpes"
    }, 
    "296191615": {
        "country": "France", 
        "lat": 45.115175087069, 
        "lon": 5.88618048270251, 
        "name": "Chamrousse", 
        "state": "Auvergne-Rhône-Alpes"
    }, 
    "296909728": {
        "country": "France", 
        "lat": 44.4815855891994, 
        "lon": 6.56728919500172, 
        "name": "Les Orres", 
        "state": "Provence-Alpes-Côte d'Azur"
    }, 
    "296979402": {
        "country": "France", 
        "lat": 44.590288498431, 
        "lon": 6.65450909347772, 
        "name": "Vars/Risoul", 
        "state": "Provence-Alpes-Côte d'Azur"
    }, 
    "307319167": {
        "country": "日本", 
        "lat": 44.0156146718656, 
        "lon": 142.135738267548, 
        "name": "ほろたちスキー場", 
        "state": "北海道"
    }, 
    "30734163": {
        "country": "Canada", 
        "lat": 43.7531717116558, 
        "lon": -79.4304142781408, 
        "name": "Earl Bales Park Ski and Snowboard Centre", 
        "state": "Ontario"
    }, 
    "308152532": {
        "country": "United States of America", 
        "lat": 38.5121795715859, 
        "lon": -106.338409119764, 
        "name": "Monarch Mountain", 
        "state": "Colorado"
    }, 
    "311390738": {
        "country": "România", 
        "lat": 45.1980674135521, 
        "lon": 22.0419433597923, 
        "name": "Casa Baraj", 
        "state": "Caraș-Severin"
    }, 
    "31353572": {
        "country": "Россия", 
        "lat": 56.7927361567493, 
        "lon": 53.0544163125093, 
        "name": "Спортивный курорт Чекерил", 
        "state": "Удмуртия"
    }, 
    "313781036": {
        "country": "United States of America", 
        "lat": 45.8505718714338, 
        "lon": -95.6181077355643, 
        "name": "Andes Tower Hills", 
        "state": "Minnesota"
    }, 
    "3139919": {
        "country": "United States of America", 
        "lat": 38.1908032699822, 
        "lon": -119.937288127303, 
        "name": "Dodge Ridge Ski Area", 
        "state": "California"
    }, 
    "31483300": {
        "country": "Schweiz/Suisse/Svizzera/Svizra", 
        "lat": 47.15002075, 
        "lon": 7.1721462, 
        "name": "Téléskis SA Les Prés-d'Orvin", 
        "state": "Bern/Berne"
    }, 
    "31483372": {
        "country": "Schweiz/Suisse/Svizzera/Svizra", 
        "lat": 47.1490273780402, 
        "lon": 7.1700561366637, 
        "name": "Téléskis SA Les Prés-d'Orvin", 
        "state": "Bern/Berne"
    }, 
    "31483719": {
        "country": "Schweiz/Suisse/Svizzera/Svizra", 
        "lat": 47.1453463223584, 
        "lon": 7.17161367569334, 
        "name": "Téléskis SA Les Prés-d'Orvin", 
        "state": "Bern/Berne"
    }, 
    "315323627": {
        "country": "United States of America", 
        "lat": 39.1926503561475, 
        "lon": -120.251085828009, 
        "name": "Squaw Valley Ski Resort", 
        "state": "California"
    }, 
    "315562165": {
        "country": "United States of America", 
        "lat": 44.6478642527588, 
        "lon": -70.1716430842031, 
        "name": "Titcomb Mountain Ski Area", 
        "state": "Maine"
    }, 
    "3160540": {
        "country": "France", 
        "lat": 44.9274711974912, 
        "lon": 6.54930024939197, 
        "name": "Serre-Chevalier", 
        "state": "Provence-Alpes-Côte d'Azur"
    }, 
    "3161151": {
        "country": "France", 
        "lat": 46.3941438497701, 
        "lon": 6.06039052206657, 
        "name": "La Vattay", 
        "state": "Auvergne-Rhône-Alpes"
    }, 
    "3161169": {
        "country": "France", 
        "lat": 46.4912741711359, 
        "lon": 6.08932253448976, 
        "name": "Les Rousses", 
        "state": "Bourgogne-Franche-Comté"
    }, 
    "3161183": {
        "country": "France", 
        "lat": 46.5355099854862, 
        "lon": 6.09279130168422, 
        "name": "Le Risoux", 
        "state": "Bourgogne-Franche-Comté"
    }, 
    "3161196": {
        "country": "Schweiz/Suisse/Svizzera/Svizra", 
        "lat": 46.5655872975314, 
        "lon": 6.19126529126561, 
        "name": "Le Brassus- La Thomassette", 
        "state": "Vaud"
    }, 
    "3161200": {
        "country": "Schweiz/Suisse/Svizzera/Svizra", 
        "lat": 46.6509621164759, 
        "lon": 6.37403269874101, 
        "name": "Le Mollendruz", 
        "state": "Vaud"
    }, 
    "3161203": {
        "country": "France", 
        "lat": 46.7388876280536, 
        "lon": 6.34025772351634, 
        "name": "Metabief - Mont d'or", 
        "state": "Bourgogne-Franche-Comté"
    }, 
    "3162703": {
        "country": "Schweiz/Suisse/Svizzera/Svizra", 
        "lat": 46.3348348708113, 
        "lon": 7.49440573733575, 
        "name": "Crans-Montana", 
        "state": "Valais/Wallis"
    }, 
    "3163818": {
        "country": "France", 
        "lat": 42.9420621538659, 
        "lon": 0.287016817862119, 
        "name": "Campan-Payolle", 
        "state": "Occitanie"
    }, 
    "3164054": {
        "country": "France", 
        "lat": 44.1193912245047, 
        "lon": 3.54804935769847, 
        "name": "Prat-Peyrot", 
        "state": "Occitanie"
    }, 
    "3165847": {
        "country": "Österreich", 
        "lat": 47.2537690962987, 
        "lon": 13.5560495200897, 
        "name": "Obertauern", 
        "state": "Salzburg"
    }, 
    "3165864": {
        "country": "Österreich", 
        "lat": 47.3515371734609, 
        "lon": 13.439007240748, 
        "name": "Radstadt - Altenmarkt", 
        "state": "Salzburg"
    }, 
    "3169070": {
        "country": "United States of America", 
        "lat": 37.65881701627, 
        "lon": -119.662273242252, 
        "name": "Badger Pass Ski Area", 
        "state": "California"
    }, 
    "317219148": {
        "country": "Magyarország", 
        "lat": 48.1006864597809, 
        "lon": 20.4874344751683, 
        "name": "Bánkút Sícentrum", 
        "state": "Alföld és Észak"
    }, 
    "317721523": {
        "country": "United States of America", 
        "lat": 38.940638262593, 
        "lon": -119.91246064378, 
        "name": "Heavenly Mountain Resort", 
        "state": "Nevada"
    }, 
    "3179911": {
        "country": "United States of America", 
        "lat": 38.1863157100855, 
        "lon": -119.942780839997, 
        "name": "Summit Ranger District Ski Trails", 
        "state": "California"
    }, 
    "3184061": {
        "country": "United States of America", 
        "lat": 39.3317322352445, 
        "lon": -120.349318861321, 
        "name": "Boreal Mountain Resort", 
        "state": "California"
    }, 
    "3184079": {
        "country": "United States of America", 
        "lat": 39.3225236798521, 
        "lon": -120.337485348149, 
        "name": "Donner Ski Ranch", 
        "state": "California"
    }, 
    "3184081": {
        "country": "United States of America", 
        "lat": 39.3035380381695, 
        "lon": -120.33637243232, 
        "name": "Sugar Bowl", 
        "state": "California"
    }, 
    "3185443": {
        "country": "United States of America", 
        "lat": 33.9553819843577, 
        "lon": -109.566814481811, 
        "name": "Sunrise Park Resort", 
        "state": "Arizona"
    }, 
    "3185646": {
        "country": "United States of America", 
        "lat": 34.3713646669694, 
        "lon": -117.685877271322, 
        "name": "Mountain High", 
        "state": "California"
    }, 
    "3185666": {
        "country": "United States of America", 
        "lat": 34.344013390813, 
        "lon": -117.931697325962, 
        "name": "Mount Waterman", 
        "state": "California"
    }, 
    "3185906": {
        "country": "United States of America", 
        "lat": 39.31981743834, 
        "lon": -120.381978092702, 
        "name": "Soda Springs", 
        "state": "California"
    }, 
    "3185924": {
        "country": "United States of America", 
        "lat": 39.3090238134295, 
        "lon": -120.39877319074, 
        "name": "Royal Gorge Cross Country Ski Resort", 
        "state": "California"
    }, 
    "3187211": {
        "country": "United States of America", 
        "lat": 35.3297959579567, 
        "lon": -111.69812877901, 
        "name": "Arizona Snowbowl", 
        "state": "Arizona"
    }, 
    "3187217": {
        "country": "United States of America", 
        "lat": 32.4456879333333, 
        "lon": -110.780248666667, 
        "name": "Mount Lemmon Ski Valley", 
        "state": "Arizona"
    }, 
    "319472357": {
        "country": "United States of America", 
        "lat": 38.6744893500091, 
        "lon": -120.063565082351, 
        "name": "Kirkwood Mountain Resort", 
        "state": "California"
    }, 
    "319612401": {
        "country": "Österreich", 
        "lat": 46.9080437500603, 
        "lon": 15.0340204261189, 
        "name": "Klug Lifte", 
        "state": "Steiermark"
    }, 
    "319667791": {
        "country": "România", 
        "lat": 45.5645641079129, 
        "lon": 23.5057598076071, 
        "name": "Domeniul Schiabil Șureanu", 
        "state": "Alba"
    }, 
    "319681538": {
        "country": "România", 
        "lat": 45.4012071290848, 
        "lon": 23.7027120640661, 
        "name": "Ski Vidra", 
        "state": "Vâlcea"
    }, 
    "319727007": {
        "country": "日本", 
        "lat": 37.2132816568014, 
        "lon": 140.020925945191, 
        "name": "グランディ羽鳥湖スキーリゾート", 
        "state": "福島県"
    }, 
    "319736079": {
        "country": "Österreich", 
        "lat": 46.9539717196771, 
        "lon": 14.6894653860817, 
        "name": "Klippitztörl", 
        "state": "Kärnten"
    }, 
    "319739983": {
        "country": "Österreich", 
        "lat": 47.061107151167, 
        "lon": 15.3555853129922, 
        "name": "Thaler Loipe", 
        "state": "Steiermark"
    }, 
    "319798776": {
        "country": "日本", 
        "lat": 37.6224768230139, 
        "lon": 140.316756811236, 
        "name": "あだたら高原スキー場", 
        "state": "福島県"
    }, 
    "319842653": {
        "country": "日本", 
        "lat": 37.1149040933903, 
        "lon": 139.631874794405, 
        "name": "会津高原たかつえスキー場", 
        "state": "福島県"
    }, 
    "319879036": {
        "country": "日本", 
        "lat": 37.030788950991, 
        "lon": 139.397944840558, 
        "name": "尾瀬檜枝岐温泉スキー場", 
        "state": "福島県"
    }, 
    "319914086": {
        "country": "Österreich", 
        "lat": 47.3301258133223, 
        "lon": 12.7545233180736, 
        "name": "Schmittenhöhe Zell am See", 
        "state": "Salzburg"
    }, 
    "319961200": {
        "country": "日本", 
        "lat": 37.5939858395104, 
        "lon": 140.112431348657, 
        "name": "ファミリースノーパーク ばんだい×2", 
        "state": "福島県"
    }, 
    "319961204": {
        "country": "日本", 
        "lat": 37.7504211228936, 
        "lon": 139.864152376474, 
        "name": "喜多方市三ノ倉スキー場", 
        "state": "福島県"
    }, 
    "319965805": {
        "country": "日本", 
        "lat": 37.442228455182, 
        "lon": 139.543378666926, 
        "name": "フェアリーランドかねやまスキー場", 
        "state": "福島県"
    }, 
    "320001345": {
        "country": "日本", 
        "lat": 37.6382309752534, 
        "lon": 140.328788365539, 
        "name": "二本松塩沢スキー場", 
        "state": "福島県"
    }, 
    "320005478": {
        "country": "日本", 
        "lat": 37.7097492219239, 
        "lon": 140.127866802388, 
        "name": "グランデコスノーリゾート", 
        "state": "福島県"
    }, 
    "320005479": {
        "country": "日本", 
        "lat": 37.2673721776871, 
        "lon": 139.975719881469, 
        "name": "スキーリゾート天栄", 
        "state": "福島県"
    }, 
    "320005480": {
        "country": "日本", 
        "lat": 37.4627777, 
        "lon": 139.636777266667, 
        "name": "三島町営スキー場", 
        "state": "福島県"
    }, 
    "320005481": {
        "country": "日本", 
        "lat": 37.6241515524163, 
        "lon": 140.23602931896, 
        "name": "沼尻スキー場", 
        "state": "福島県"
    }, 
    "320201611": {
        "country": "Suomi", 
        "lat": 61.7325929737236, 
        "lon": 25.8717275767868, 
        "name": "Hiihtokeskus Purnu", 
        "state": "Etelä-Suomi"
    }, 
    "320269703": {
        "country": "Österreich", 
        "lat": 47.2089932223344, 
        "lon": 12.6944995051524, 
        "name": "Kitzsteinhorn", 
        "state": "Salzburg"
    }, 
    "320417628": {
        "country": "Кыргызстан", 
        "lat": 42.6324166756265, 
        "lon": 74.6339794652492, 
        "name": "Чункурчак", 
        "state": "Чуйская область"
    }, 
    "320434895": {
        "country": "United States of America", 
        "lat": 42.7430416650234, 
        "lon": -77.4149581506495, 
        "name": "Bristol Mountain Ski Resort", 
        "state": "New York"
    }, 
    "320573837": {
        "country": "España", 
        "lat": 40.3467929681548, 
        "lon": -5.68830448596473, 
        "name": "Estación de esquí Sierra de Béjar - La Covatilla", 
        "state": "Castilla y León"
    }, 
    "3207144": {
        "country": "France", 
        "lat": 44.8136078373561, 
        "lon": 6.47943020059318, 
        "name": "Puy-Saint-Vincent", 
        "state": "Provence-Alpes-Côte d'Azur"
    }, 
    "32083800": {
        "country": "대한민국", 
        "lat": 37.1905409210821, 
        "lon": 128.830463066462, 
        "name": "하이원스키장", 
        "state": "강원도"
    }, 
    "320878947": {
        "country": "Slovensko", 
        "lat": 48.8695471308239, 
        "lon": 20.391814819007, 
        "name": "SKI CENTRUM DEDINKY", 
        "state": "Košický kraj"
    }, 
    "321320545": {
        "country": "Österreich", 
        "lat": 47.4263571543746, 
        "lon": 14.4744925894801, 
        "name": "Hohentauern", 
        "state": "Steiermark"
    }, 
    "321336384": {
        "country": "Österreich", 
        "lat": 46.9452519116058, 
        "lon": 15.0782004995076, 
        "name": "Modriach-Winkel Hoislifte", 
        "state": "Steiermark"
    }, 
    "321461540": {
        "country": "Österreich", 
        "lat": 46.8292533190174, 
        "lon": 15.1267992219547, 
        "name": "Parfußwirtlifte Trahütten", 
        "state": "Steiermark"
    }, 
    "321471810": {
        "country": "Österreich", 
        "lat": 47.5187426230135, 
        "lon": 14.9588027885515, 
        "name": "Präbichl", 
        "state": "Steiermark"
    }, 
    "32150269": {
        "country": "Slovenija", 
        "lat": 46.3624108321312, 
        "lon": 13.4911298855621, 
        "name": "Sella Nevea - Kanin", 
        "state": ""
    }, 
    "321514318": {
        "country": "Österreich", 
        "lat": 47.401759285942, 
        "lon": 14.204356409279, 
        "name": "Planneralm", 
        "state": "Steiermark"
    }, 
    "321514417": {
        "country": "Österreich", 
        "lat": 47.3756208875566, 
        "lon": 14.1041257298403, 
        "name": "Skigebiet Riesneralm - Donnersbachwald", 
        "state": "Steiermark"
    }, 
    "321520268": {
        "country": "Österreich", 
        "lat": 47.5720488526298, 
        "lon": 13.9832909115264, 
        "name": "Tauplitz / Bad Mitterndorf", 
        "state": "Steiermark"
    }, 
    "321879917": {
        "country": "Česko", 
        "lat": 50.0617049, 
        "lon": 17.3603153, 
        "name": "Annaberg", 
        "state": "Moravskoslezsko"
    }, 
    "322105645": {
        "country": "日本", 
        "lat": 37.6245056631949, 
        "lon": 140.070254662072, 
        "name": "裏磐梯スキー場", 
        "state": "福島県"
    }, 
    "322170679": {
        "country": "United States of America", 
        "lat": 44.4673430764131, 
        "lon": -70.878174644772, 
        "name": "Sunday River", 
        "state": "Maine"
    }, 
    "322310180": {
        "country": "日本", 
        "lat": 37.5985083703749, 
        "lon": 140.035259311147, 
        "name": "アルツ磐梯スキー場", 
        "state": "福島県"
    }, 
    "322310181": {
        "country": "日本", 
        "lat": 37.5853549364409, 
        "lon": 140.060427651192, 
        "name": "グランドサンピア猪苗代リゾートスキー場", 
        "state": "福島県"
    }, 
    "322310187": {
        "country": "日本", 
        "lat": 37.58248183923, 
        "lon": 140.089626405895, 
        "name": "猪苗代スキー場", 
        "state": "福島県"
    }, 
    "322310188": {
        "country": "日本", 
        "lat": 37.6210258353399, 
        "lon": 140.032780295316, 
        "name": "猫魔スキー場", 
        "state": "福島県"
    }, 
    "322328447": {
        "country": "日本", 
        "lat": 37.5467547147945, 
        "lon": 140.152963113614, 
        "name": "リステルスキーファンタジア", 
        "state": "福島県"
    }, 
    "322328448": {
        "country": "日本", 
        "lat": 37.0924379823349, 
        "lon": 139.456878742047, 
        "name": "会津高原 高畑スキー場", 
        "state": "福島県"
    }, 
    "322328449": {
        "country": "日本", 
        "lat": 37.1782072540922, 
        "lon": 139.630697010498, 
        "name": "会津高原だいくらスキー場", 
        "state": "福島県"
    }, 
    "322328450": {
        "country": "日本", 
        "lat": 37.5378598914512, 
        "lon": 139.713118312282, 
        "name": "柳津温泉スキー場", 
        "state": "福島県"
    }, 
    "322328453": {
        "country": "日本", 
        "lat": 37.6595142968346, 
        "lon": 140.257584413323, 
        "name": "横向温泉スキー場", 
        "state": "福島県"
    }, 
    "322328454": {
        "country": "日本", 
        "lat": 37.6512634210584, 
        "lon": 140.26374909916, 
        "name": "箕輪スキー場", 
        "state": "福島県"
    }, 
    "323823014": {
        "country": "Magyarország", 
        "lat": 47.8737502578907, 
        "lon": 20.0043592912781, 
        "name": "Kékestető Sícentrum", 
        "state": "Alföld és Észak"
    }, 
    "324162841": {
        "country": "日本", 
        "lat": 36.5609657902822, 
        "lon": 137.797593833996, 
        "name": "爺ガ岳スキー場", 
        "state": "長野県"
    }, 
    "324351333": {
        "country": "España", 
        "lat": 42.2513975571484, 
        "lon": -2.9699879787187, 
        "name": "Estación de esquí de Valdezcaray", 
        "state": "La Rioja"
    }, 
    "3252880": {
        "country": "Canada", 
        "lat": 43.4335826376857, 
        "lon": -80.4206125666894, 
        "name": "Chicopee", 
        "state": "Ontario"
    }, 
    "325882270": {
        "country": "Україна", 
        "lat": 49.7409658949537, 
        "lon": 34.5802963312784, 
        "name": "Гірськолижна база «Корчак»", 
        "state": "Полтавська область"
    }, 
    "327554620": {
        "country": "Deutschland", 
        "lat": 48.8039468724262, 
        "lon": 13.6488624858889, 
        "name": "Skiabfahrt Grainet", 
        "state": "Bayern"
    }, 
    "328023502": {
        "country": "Sverige", 
        "lat": 65.0728649122386, 
        "lon": 14.7843440400964, 
        "name": "Klimpfjällsbackarna", 
        "state": "Västerbottens län"
    }, 
    "328504452": {
        "country": "대한민국", 
        "lat": 38.2640270819474, 
        "lon": 128.382457941615, 
        "name": "Alps Resort", 
        "state": "강원도"
    }, 
    "328853752": {
        "country": "France", 
        "lat": 48.1391236435383, 
        "lon": 7.08580817629003, 
        "name": "Ski du Lac Blanc", 
        "state": "Grand Est"
    }, 
    "329126605": {
        "country": "Lietuva", 
        "lat": 55.0768169, 
        "lon": 24.2666539, 
        "name": "Jonavos slidinėjimo centras", 
        "state": "Kauno apskritis"
    }, 
    "329327844": {
        "country": "Slovensko", 
        "lat": 49.2644567924322, 
        "lon": 18.8182557056346, 
        "name": "Lyžiarske a rekreačné stredisko Veľké Ostré", 
        "state": "Žilinský kraj"
    }, 
    "329356369": {
        "country": "Polska", 
        "lat": 49.6832568710041, 
        "lon": 18.9965989228586, 
        "name": "Szczyrk Mountain Resort", 
        "state": "województwo śląskie"
    }, 
    "329357091": {
        "country": "Polska", 
        "lat": 49.6909064955221, 
        "lon": 19.0164058039551, 
        "name": "COS Szczyrk", 
        "state": "województwo śląskie"
    }, 
    "3299314": {
        "country": "France", 
        "lat": 45.168802804864, 
        "lon": 5.63194260907346, 
        "name": "Saint-Nizier-du-Moucherotte", 
        "state": "Auvergne-Rhône-Alpes"
    }, 
    "330118914": {
        "country": "Canada", 
        "lat": 45.5884212969621, 
        "lon": -75.8457156170824, 
        "name": "Mont Cascades Ski", 
        "state": "Québec"
    }, 
    "330226984": {
        "country": "Canada", 
        "lat": 45.6410717038019, 
        "lon": -75.8501017582993, 
        "name": "Edelweiss", 
        "state": "Québec"
    }, 
    "331209851": {
        "country": "France", 
        "lat": 45.2232860371169, 
        "lon": 5.59411723038928, 
        "name": "Autrans - Grand domaine la Sure", 
        "state": "Auvergne-Rhône-Alpes"
    }, 
    "331209852": {
        "country": "France", 
        "lat": 45.171115401943, 
        "lon": 5.54612086795269, 
        "name": "Autrans Village", 
        "state": "Auvergne-Rhône-Alpes"
    }, 
    "331655170": {
        "country": "France", 
        "lat": 45.1113429233944, 
        "lon": 5.61580704772493, 
        "name": "Montagnes de Lans", 
        "state": "Auvergne-Rhône-Alpes"
    }, 
    "3321422": {
        "country": "United States of America", 
        "lat": 39.3512072123728, 
        "lon": -120.260939106827, 
        "name": "Tahoe Donner Downhill Ski Area", 
        "state": "California"
    }, 
    "332503004": {
        "country": "Italia", 
        "lat": 44.2892018028487, 
        "lon": 10.4145757734518, 
        "name": "Area Sciisitica Febbio - Rescadore", 
        "state": "Emilia-Romagna"
    }, 
    "332881926": {
        "country": "France", 
        "lat": 45.2726919228881, 
        "lon": 6.88712608020758, 
        "name": "Val Cenis Vanoise", 
        "state": "Auvergne-Rhône-Alpes"
    }, 
    "333042540": {
        "country": "Italia", 
        "lat": 44.2939644661762, 
        "lon": 10.2437733850644, 
        "name": "Area Sciistica Cerreto Laghi", 
        "state": "Emilia-Romagna"
    }, 
    "333042991": {
        "country": "Italia", 
        "lat": 44.4706487512002, 
        "lon": 10.1663848469141, 
        "name": "Area Sciistica Schia Monte Caio", 
        "state": "Emilia-Romagna"
    }, 
    "334089267": {
        "country": "United States of America", 
        "lat": 44.056895173218, 
        "lon": -71.0988875168994, 
        "name": "Cranmore Mountain Resort", 
        "state": "New Hampshire"
    }, 
    "334242641": {
        "country": "United States of America", 
        "lat": 44.171785552373, 
        "lon": -71.1653006680746, 
        "name": "Black Mountain", 
        "state": "New Hampshire"
    }, 
    "334246239": {
        "country": "United States of America", 
        "lat": 44.0448145220924, 
        "lon": -71.6353806004269, 
        "name": "Loon Mountain Resort", 
        "state": "New Hampshire"
    }, 
    "334259037": {
        "country": "United States of America", 
        "lat": 44.1695589625941, 
        "lon": -71.7023561257502, 
        "name": "Cannon Mountain", 
        "state": "New Hampshire"
    }, 
    "334259462": {
        "country": "United States of America", 
        "lat": 43.9613765262502, 
        "lon": -71.5396018819619, 
        "name": "Waterville Valley Resort", 
        "state": "New Hampshire"
    }, 
    "334292331": {
        "country": "Italia", 
        "lat": 44.1824661385684, 
        "lon": 10.5385322767288, 
        "name": "Area Sciistica Sant'Annapelago", 
        "state": "Emilia-Romagna"
    }, 
    "334481848": {
        "country": "Italia", 
        "lat": 44.7984577479055, 
        "lon": 9.32701769186537, 
        "name": "Passo Penice", 
        "state": "Emilia-Romagna"
    }, 
    "334489048": {
        "country": "Italia", 
        "lat": 44.6894434688282, 
        "lon": 9.20626297777903, 
        "name": "Area Sciistica Pian del Poggio Monte Chiappo", 
        "state": "Lombardia"
    }, 
    "334551085": {
        "country": "Italia", 
        "lat": 44.3861970935744, 
        "lon": 9.74801462412365, 
        "name": "Area Scistica Zum Zeri", 
        "state": "Toscana"
    }, 
    "334578976": {
        "country": "Sverige", 
        "lat": 61.1716835751325, 
        "lon": 14.0791014459413, 
        "name": "Wäsabergen", 
        "state": "Dalarnas län"
    }, 
    "334647443": {
        "country": "Italia", 
        "lat": 44.3551123712077, 
        "lon": 10.101648594099, 
        "name": "Area Sciistica Pratospilla", 
        "state": "Emilia-Romagna"
    }, 
    "334648494": {
        "country": "Italia", 
        "lat": 44.7177344027861, 
        "lon": 9.14597189188502, 
        "name": "Area sciistica Caldirola", 
        "state": "Piemonte"
    }, 
    "334648920": {
        "country": "Italia", 
        "lat": 43.7931857817162, 
        "lon": 12.0787720633416, 
        "name": "Area sciistica Monte Fumaiolo", 
        "state": "Emilia-Romagna"
    }, 
    "334669511": {
        "country": "Italia", 
        "lat": 43.8647031993906, 
        "lon": 11.7326897322129, 
        "name": "Area sciistica Pian del Falco", 
        "state": "Emilia-Romagna"
    }, 
    "334669628": {
        "country": "Italia", 
        "lat": 43.8783186022328, 
        "lon": 11.71546014599, 
        "name": "Area Sciistica Campigna", 
        "state": "Emilia-Romagna"
    }, 
    "334817747": {
        "country": "Italia", 
        "lat": 46.4245418362955, 
        "lon": 11.5884057355397, 
        "name": "Carezza", 
        "state": "Trentino-Alto Adige/Südtirol"
    }, 
    "335603013": {
        "country": "Österreich", 
        "lat": 48.7366305348372, 
        "lon": 13.894165456997, 
        "name": "Hochficht-Böhmerwald", 
        "state": "Oberösterreich"
    }, 
    "335604165": {
        "country": "Österreich", 
        "lat": 48.5953059924868, 
        "lon": 14.7467675368806, 
        "name": "Aichelberglifte Karlstift", 
        "state": "Niederösterreich"
    }, 
    "335604675": {
        "country": "Österreich", 
        "lat": 48.5607612713977, 
        "lon": 14.6306848573736, 
        "name": "Schigebiet Viehberg", 
        "state": "Oberösterreich"
    }, 
    "335615233": {
        "country": "Österreich", 
        "lat": 48.5572639645771, 
        "lon": 14.2777622629332, 
        "name": "Sternsteinlifte", 
        "state": "Oberösterreich"
    }, 
    "335616071": {
        "country": "Österreich", 
        "lat": 47.9361258633833, 
        "lon": 15.8352993422301, 
        "name": "Schigebiet Unterberg", 
        "state": "Niederösterreich"
    }, 
    "335616609": {
        "country": "Österreich", 
        "lat": 47.9052105265503, 
        "lon": 15.7711927880439, 
        "name": "Skigebiet Furtnerlifte Rohr im Gebirge", 
        "state": "Niederösterreich"
    }, 
    "335616930": {
        "country": "Österreich", 
        "lat": 47.790943308432, 
        "lon": 15.8277351949281, 
        "name": "Salamander Skigebiet Puchberg", 
        "state": "Niederösterreich"
    }, 
    "335619937": {
        "country": "Österreich", 
        "lat": 47.5199984340917, 
        "lon": 16.0040462806053, 
        "name": "Skigebiet Mönichkirchen - Mariensee", 
        "state": "Niederösterreich"
    }, 
    "335621978": {
        "country": "Österreich", 
        "lat": 47.5717040652526, 
        "lon": 15.908168523222, 
        "name": "Steyersberger Schwaig", 
        "state": "Niederösterreich"
    }, 
    "335623048": {
        "country": "Österreich", 
        "lat": 47.6248916825256, 
        "lon": 15.8291201767707, 
        "name": "Semmering Hirschenkogel", 
        "state": "Steiermark"
    }, 
    "335626149": {
        "country": "Österreich", 
        "lat": 47.5908639902652, 
        "lon": 15.7673778655817, 
        "name": "Skigebiet Stuhleck - Semmering", 
        "state": "Steiermark"
    }, 
    "335627419": {
        "country": "Österreich", 
        "lat": 47.4836043144974, 
        "lon": 15.8802125926674, 
        "name": "Skigebiet Mönichwald - Hochwechsellifte", 
        "state": "Steiermark"
    }, 
    "335632907": {
        "country": "Österreich", 
        "lat": 47.4794501182916, 
        "lon": 15.7852916931925, 
        "name": "Familienschiberg St. Jakob im Walde", 
        "state": "Steiermark"
    }, 
    "335633778": {
        "country": "Österreich", 
        "lat": 47.5139318641053, 
        "lon": 15.6976492082128, 
        "name": "Skigebiet Hauereck - St. Kathrein am Hauenstein", 
        "state": "Steiermark"
    }, 
    "335639760": {
        "country": "Österreich", 
        "lat": 47.4361145257666, 
        "lon": 15.7043694566115, 
        "name": "Skigebiet Strallegg", 
        "state": "Steiermark"
    }, 
    "335644325": {
        "country": "Österreich", 
        "lat": 47.8813253878244, 
        "lon": 15.3684982447074, 
        "name": "Skigebiet Annaberg", 
        "state": "Niederösterreich"
    }, 
    "335645099": {
        "country": "Österreich", 
        "lat": 47.8085513013833, 
        "lon": 15.460686772766, 
        "name": "Skigebiet Göllerlifte", 
        "state": "Niederösterreich"
    }, 
    "335645917": {
        "country": "Österreich", 
        "lat": 47.9160386608424, 
        "lon": 15.2811269594874, 
        "name": "Turmkogellifte Puchenstuben", 
        "state": "Niederösterreich"
    }, 
    "335647013": {
        "country": "Österreich", 
        "lat": 47.6794972041791, 
        "lon": 14.1675859230398, 
        "name": "Hinterstoder", 
        "state": "Oberösterreich"
    }, 
    "335647554": {
        "country": "Österreich", 
        "lat": 47.639529928992, 
        "lon": 14.2832223057152, 
        "name": "Wurzeralm Arena", 
        "state": "Oberösterreich"
    }, 
    "335648146": {
        "country": "Österreich", 
        "lat": 47.1638482205259, 
        "lon": 13.6761388846993, 
        "name": "Skigebiet Fanningberg", 
        "state": "Salzburg"
    }, 
    "336062441": {
        "country": "Italia", 
        "lat": 45.779267889412, 
        "lon": 10.9302160163909, 
        "name": "Area sciistica Bentonico", 
        "state": "Trentino-Alto Adige/Südtirol"
    }, 
    "336220681": {
        "country": "Italia", 
        "lat": 45.7609392242175, 
        "lon": 10.8710900690772, 
        "name": "Area Sciistica Prà Alpesina", 
        "state": "Trentino-Alto Adige/Südtirol"
    }, 
    "336229660": {
        "country": "Italia", 
        "lat": 45.8933043564938, 
        "lon": 11.2125919768966, 
        "name": "Skiarea Folgaria Fiorentini", 
        "state": "Trentino-Alto Adige/Südtirol"
    }, 
    "336234488": {
        "country": "Italia", 
        "lat": 46.0367080981543, 
        "lon": 11.0531268307737, 
        "name": "Monte Bondone", 
        "state": "Trentino-Alto Adige/Südtirol"
    }, 
    "336236243": {
        "country": "Italia", 
        "lat": 46.1553348645405, 
        "lon": 11.0265744555531, 
        "name": "Skiarea Paganella", 
        "state": "Trentino-Alto Adige/Südtirol"
    }, 
    "3398479": {
        "country": "Schweiz/Suisse/Svizzera/Svizra", 
        "lat": 46.6183343613985, 
        "lon": 7.97880428043615, 
        "name": "Grindelwald - Männlichen", 
        "state": "Bern/Berne"
    }, 
    "340479404": {
        "country": "Österreich", 
        "lat": 47.8901382070447, 
        "lon": 14.7614339074063, 
        "name": "Schigebiet Forsteralm", 
        "state": "Oberösterreich"
    }, 
    "340480524": {
        "country": "Österreich", 
        "lat": 47.7859844543506, 
        "lon": 14.7979549737665, 
        "name": "Skigebiet Königsberg - Hollenstein", 
        "state": "Niederösterreich"
    }, 
    "340480816": {
        "country": "Österreich", 
        "lat": 47.7182271572392, 
        "lon": 14.9229269617603, 
        "name": "Hochkar", 
        "state": "Niederösterreich"
    }, 
    "340482649": {
        "country": "Österreich", 
        "lat": 47.6834553923594, 
        "lon": 15.38137207041, 
        "name": "Niederalpl", 
        "state": "Steiermark"
    }, 
    "340482796": {
        "country": "Österreich", 
        "lat": 47.6370502087315, 
        "lon": 15.4201834752345, 
        "name": "Skigebiet Veitsch", 
        "state": "Steiermark"
    }, 
    "340483137": {
        "country": "Österreich", 
        "lat": 47.6251190033635, 
        "lon": 15.2870152667536, 
        "name": "Skigebiet Seeberg / Seewiesen", 
        "state": "Steiermark"
    }, 
    "340483629": {
        "country": "Österreich", 
        "lat": 47.5646479164429, 
        "lon": 15.2285100002991, 
        "name": "Skigebiet Aflenzer Bürgeralm", 
        "state": "Steiermark"
    }, 
    "340484109": {
        "country": "Österreich", 
        "lat": 47.3464555089214, 
        "lon": 15.4575407324528, 
        "name": "Teichalm Lifte", 
        "state": "Steiermark"
    }, 
    "340484713": {
        "country": "Österreich", 
        "lat": 46.6933092397962, 
        "lon": 13.9142510521797, 
        "name": "Skigebiet Gerlitzen Alpe", 
        "state": "Kärnten"
    }, 
    "340485050": {
        "country": "Österreich", 
        "lat": 47.0564675071548, 
        "lon": 14.3249354761496, 
        "name": "Skigebiet Grebenzen", 
        "state": "Steiermark"
    }, 
    "340485537": {
        "country": "Österreich", 
        "lat": 47.08161005, 
        "lon": 14.1487277, 
        "name": "Schigebiet Frauenalpe Murau", 
        "state": "Steiermark"
    }, 
    "340487306": {
        "country": "Österreich", 
        "lat": 47.0756595801118, 
        "lon": 14.0552544341747, 
        "name": "Kreischberg", 
        "state": "Steiermark"
    }, 
    "340487785": {
        "country": "Österreich", 
        "lat": 47.2635175792789, 
        "lon": 14.3629420519164, 
        "name": "Skigebiet Lachtal", 
        "state": "Steiermark"
    }, 
    "340488347": {
        "country": "Österreich", 
        "lat": 47.8804437700474, 
        "lon": 14.2551138291767, 
        "name": "Schilifte Molln", 
        "state": "Oberösterreich"
    }, 
    "340488433": {
        "country": "Österreich", 
        "lat": 47.8607476805803, 
        "lon": 15.0761066413933, 
        "name": "Maiszinken", 
        "state": "Niederösterreich"
    }, 
    "341164658": {
        "country": "日本", 
        "lat": 43.1442557359501, 
        "lon": 141.1282719995, 
        "name": "オーンズスキースクール", 
        "state": "北海道"
    }, 
    "3412583": {
        "country": "Schweiz/Suisse/Svizzera/Svizra", 
        "lat": 46.6504607224065, 
        "lon": 8.06307317131095, 
        "name": "Grindelwald First", 
        "state": "Bern/Berne"
    }, 
    "3412584": {
        "country": "Schweiz/Suisse/Svizzera/Svizra", 
        "lat": 46.6007016454404, 
        "lon": 7.97043619050763, 
        "name": "Kleine Scheidegg/Männlichen", 
        "state": "Bern/Berne"
    }, 
    "3412585": {
        "country": "Schweiz/Suisse/Svizzera/Svizra", 
        "lat": 46.5709462186826, 
        "lon": 7.88040977929794, 
        "name": "Mürren/Schilthorn", 
        "state": "Bern/Berne"
    }, 
    "341884258": {
        "country": "Österreich", 
        "lat": 47.4107092853884, 
        "lon": 16.2438227018249, 
        "name": "Schizentrum Rettenbach", 
        "state": "Burgenland"
    }, 
    "341888406": {
        "country": "Österreich", 
        "lat": 46.5267884587072, 
        "lon": 14.776620145744, 
        "name": "Skigebiet Petzen", 
        "state": "Kärnten"
    }, 
    "341889677": {
        "country": "Österreich", 
        "lat": 47.0925422267377, 
        "lon": 14.6068635831023, 
        "name": "Skigebiet St. Wolfgang im Zirbenland", 
        "state": "Steiermark"
    }, 
    "341891100": {
        "country": "Österreich", 
        "lat": 47.8227942705954, 
        "lon": 13.9919376598085, 
        "name": "Skigebiet Kasberg Grünau", 
        "state": "Oberösterreich"
    }, 
    "341892411": {
        "country": "Österreich", 
        "lat": 47.8114118188755, 
        "lon": 13.7338178349881, 
        "name": "Feuerkogel", 
        "state": "Oberösterreich"
    }, 
    "341893196": {
        "country": "Österreich", 
        "lat": 47.7176383650626, 
        "lon": 13.2351484043464, 
        "name": "Skigebiet Gaißau-Hintersee", 
        "state": "Salzburg"
    }, 
    "341896331": {
        "country": "Österreich", 
        "lat": 47.3574676189292, 
        "lon": 13.5360871567249, 
        "name": "Skigebiet Fageralm", 
        "state": "Salzburg"
    }, 
    "341898611": {
        "country": "Österreich", 
        "lat": 47.3840208965481, 
        "lon": 13.7701374928982, 
        "name": "Hauser Kaibling", 
        "state": "Steiermark"
    }, 
    "341898615": {
        "country": "Österreich", 
        "lat": 47.3777786907097, 
        "lon": 13.6413174659881, 
        "name": "Hochwurzen", 
        "state": "Steiermark"
    }, 
    "341898616": {
        "country": "Österreich", 
        "lat": 47.3777856343343, 
        "lon": 13.7162917815869, 
        "name": "Planai", 
        "state": "Steiermark"
    }, 
    "341898617": {
        "country": "Österreich", 
        "lat": 47.3736557678797, 
        "lon": 13.5992864581391, 
        "name": "Reiteralm", 
        "state": "Steiermark"
    }, 
    "341899252": {
        "country": "Österreich", 
        "lat": 47.4307933869344, 
        "lon": 13.4997845105493, 
        "name": "Filzmoos-Neuberg", 
        "state": "Salzburg"
    }, 
    "341899728": {
        "country": "Österreich", 
        "lat": 47.256768942426, 
        "lon": 13.5636883741202, 
        "name": "Obertauern", 
        "state": "Salzburg"
    }, 
    "341903064": {
        "country": "Österreich", 
        "lat": 46.9740925278575, 
        "lon": 13.7499466771601, 
        "name": "Innerkrems", 
        "state": "Kärnten"
    }, 
    "341903564": {
        "country": "Österreich", 
        "lat": 46.9270229959746, 
        "lon": 13.8740342675613, 
        "name": "Turracher Höhe", 
        "state": "Steiermark"
    }, 
    "341904633": {
        "country": "Österreich", 
        "lat": 46.818231485207, 
        "lon": 13.7851551968012, 
        "name": "Skigebiet Bad Kleinkirchheim", 
        "state": "Kärnten"
    }, 
    "341904961": {
        "country": "Österreich", 
        "lat": 46.8582548109531, 
        "lon": 13.9863399133748, 
        "name": "Hochrindl", 
        "state": "Kärnten"
    }, 
    "341905962": {
        "country": "Österreich", 
        "lat": 46.5296524496048, 
        "lon": 13.7194059283513, 
        "name": "Skigebiet Dreiländereck - Arnoldstein", 
        "state": "Kärnten"
    }, 
    "341907027": {
        "country": "Österreich", 
        "lat": 46.775806063943, 
        "lon": 13.4595061981553, 
        "name": "Goldeck", 
        "state": "Kärnten"
    }, 
    "341907484": {
        "country": "Österreich", 
        "lat": 46.8617852033161, 
        "lon": 12.790896921305, 
        "name": "Skigebiet Lienz - Zettersfeld", 
        "state": "Tirol"
    }, 
    "341907716": {
        "country": "Österreich", 
        "lat": 47.0549590480427, 
        "lon": 13.0713653140575, 
        "name": "Sportgastein", 
        "state": "Salzburg"
    }, 
    "341908283": {
        "country": "Österreich", 
        "lat": 47.0178478493995, 
        "lon": 13.0178230660092, 
        "name": "Mölltaler Gletscher", 
        "state": "Kärnten"
    }, 
    "341908909": {
        "country": "Österreich", 
        "lat": 47.0578565335558, 
        "lon": 12.8615321918166, 
        "name": "Skigebiet Grossglockner Heiligenblut", 
        "state": "Kärnten"
    }, 
    "341987462": {
        "country": "Österreich", 
        "lat": 47.0304480100353, 
        "lon": 13.2066706076402, 
        "name": "Ankogel Mallnitz", 
        "state": "Kärnten"
    }, 
    "341989985": {
        "country": "Österreich", 
        "lat": 47.2246215391887, 
        "lon": 12.9675931959119, 
        "name": "Skigebiet Raurisertal", 
        "state": "Salzburg"
    }, 
    "341992395": {
        "country": "Österreich", 
        "lat": 47.2398251051236, 
        "lon": 13.1551826021165, 
        "name": "Großarltal-Dorfgastein", 
        "state": "Salzburg"
    }, 
    "341994404": {
        "country": "Österreich", 
        "lat": 47.3469173733691, 
        "lon": 13.3573577732765, 
        "name": "Flachau", 
        "state": "Salzburg"
    }, 
    "341994406": {
        "country": "Österreich", 
        "lat": 47.2935794918767, 
        "lon": 13.3537774911472, 
        "name": "Shuttleberg Flachauwinkl-Kleinarl", 
        "state": "Salzburg"
    }, 
    "341994407": {
        "country": "Österreich", 
        "lat": 47.3165332326633, 
        "lon": 13.2529194249985, 
        "name": "Wagrain", 
        "state": "Salzburg"
    }, 
    "342008514": {
        "country": "Österreich", 
        "lat": 47.385630996171, 
        "lon": 12.9847190692572, 
        "name": "Hochkönig", 
        "state": "Salzburg"
    }, 
    "342009346": {
        "country": "Österreich", 
        "lat": 47.3146078354846, 
        "lon": 13.0706573012866, 
        "name": "Goldegger Buchberg", 
        "state": "Salzburg"
    }, 
    "342009902": {
        "country": "Österreich", 
        "lat": 46.7224294094235, 
        "lon": 12.6164633876815, 
        "name": "Skigebiet Golzentipp/Obertilliach", 
        "state": "Tirol"
    }, 
    "342010384": {
        "country": "Österreich", 
        "lat": 46.736232241502, 
        "lon": 12.4936590223852, 
        "name": "Kartitsch / St. Oswald", 
        "state": "Tirol"
    }, 
    "342011644": {
        "country": "Österreich", 
        "lat": 46.7691338354723, 
        "lon": 12.4120356470355, 
        "name": "Sillian - Hochpustertal", 
        "state": "Tirol"
    }, 
    "342012262": {
        "country": "Österreich", 
        "lat": 46.8995021709236, 
        "lon": 12.3602207362445, 
        "name": "Brunnalm / St. Jakob", 
        "state": "Tirol"
    }, 
    "342013032": {
        "country": "Österreich", 
        "lat": 47.0012308641217, 
        "lon": 12.5953863129781, 
        "name": "Kals-Matrei", 
        "state": "Tirol"
    }, 
    "342013973": {
        "country": "Österreich", 
        "lat": 47.1437946392529, 
        "lon": 12.6274760514854, 
        "name": "Weißsee", 
        "state": "Salzburg"
    }, 
    "342015824": {
        "country": "Österreich", 
        "lat": 47.6315714109504, 
        "lon": 12.5647659945034, 
        "name": "Steinplatte Waidring-Tirol", 
        "state": "Tirol"
    }, 
    "342015965": {
        "country": "Österreich", 
        "lat": 47.6328298409308, 
        "lon": 12.2766508505616, 
        "name": "Zahmen Kaiser", 
        "state": "Tirol"
    }, 
    "342018332": {
        "country": "Österreich", 
        "lat": 47.6394592097941, 
        "lon": 12.429384228463, 
        "name": "Hochkössen - Unterberghorn", 
        "state": "Tirol"
    }, 
    "342018770": {
        "country": "Österreich", 
        "lat": 47.4059415256535, 
        "lon": 12.6365630794487, 
        "name": "Saalbach-Hinterglemm", 
        "state": "Salzburg"
    }, 
    "342020339": {
        "country": "Österreich", 
        "lat": 47.6586502790994, 
        "lon": 13.7577732377886, 
        "name": "Skigebiet Loser-Altaussee", 
        "state": "Steiermark"
    }, 
    "342020904": {
        "country": "Österreich", 
        "lat": 47.4550919696974, 
        "lon": 13.62724468326, 
        "name": "Dachsteiner Gletscher", 
        "state": "Steiermark"
    }, 
    "342022110": {
        "country": "Österreich", 
        "lat": 47.2650037621837, 
        "lon": 12.7305183242033, 
        "name": "Maiskogel", 
        "state": "Salzburg"
    }, 
    "3424095": {
        "country": "France", 
        "lat": 45.4887261668425, 
        "lon": 2.89019407423241, 
        "name": "Pertuyzat-Montchal", 
        "state": "Auvergne-Rhône-Alpes"
    }, 
    "342652533": {
        "country": "Canada", 
        "lat": 45.6079151947004, 
        "lon": -63.5488957577624, 
        "name": "Ski Wentworth", 
        "state": "Nova Scotia"
    }, 
    "3445954": {
        "country": "Andorra", 
        "lat": 42.5466498147243, 
        "lon": 1.66013109722222, 
        "name": "GrandValira", 
        "state": ""
    }, 
    "3498298": {
        "country": "Schweiz/Suisse/Svizzera/Svizra", 
        "lat": 46.8170184189045, 
        "lon": 10.2810992021728, 
        "name": "Scuol Motta Naluns", 
        "state": "Graubünden/Grigioni/Grischun"
    }, 
    "3498299": {
        "country": "Italia", 
        "lat": 46.4256255887139, 
        "lon": 9.38222984333543, 
        "name": "Skiarea Valchiavenna Madesimo/Campodolcino", 
        "state": "Lombardia"
    }, 
    "3506940": {
        "country": "Österreich", 
        "lat": 47.1655376670986, 
        "lon": 10.1916919128123, 
        "name": "Lech/Zürs", 
        "state": "Vorarlberg"
    }, 
    "3508010": {
        "country": "Österreich", 
        "lat": 46.9695425794555, 
        "lon": 10.3314462130554, 
        "name": "Silvretta Arena Ischgl/Samnaun", 
        "state": "Tirol"
    }, 
    "352752482": {
        "country": "Česko", 
        "lat": 50.3996629570772, 
        "lon": 12.934008336227, 
        "name": "Skiareál Neklid", 
        "state": "Severozápad"
    }, 
    "3533848": {
        "country": "France", 
        "lat": 46.908079718559, 
        "lon": 6.42552609143073, 
        "name": "Le Larmont", 
        "state": "Bourgogne-Franche-Comté"
    }, 
    "3533850": {
        "country": "Schweiz/Suisse/Svizzera/Svizra", 
        "lat": 46.5422518732612, 
        "lon": 6.22848202599771, 
        "name": "Le Marchairuz", 
        "state": "Vaud"
    }, 
    "3533852": {
        "country": "Schweiz/Suisse/Svizzera/Svizra", 
        "lat": 46.4637438019448, 
        "lon": 6.12236004538458, 
        "name": "La Givrine", 
        "state": "Vaud"
    }, 
    "353490262": {
        "country": "Norge", 
        "lat": 59.8280842074433, 
        "lon": 6.72171488187944, 
        "name": "Røldal Skisenter", 
        "state": "Hordaland"
    }, 
    "3545052": {
        "country": "España", 
        "lat": 42.4054830198199, 
        "lon": -6.52202029625796, 
        "name": "El Morredero", 
        "state": "Castilla y León"
    }, 
    "3545058": {
        "country": "España", 
        "lat": 41.1943814881332, 
        "lon": -3.47570138655546, 
        "name": "La Pinilla", 
        "state": "Castilla y León"
    }, 
    "3545061": {
        "country": "España", 
        "lat": 42.1903466901266, 
        "lon": -3.30660957015228, 
        "name": "Valle del Sol", 
        "state": "Castilla y León"
    }, 
    "3545062": {
        "country": "España", 
        "lat": 42.0380280435521, 
        "lon": -2.78289105905159, 
        "name": "Punto de Nieves Santa Ines", 
        "state": "Castilla y León"
    }, 
    "3545063": {
        "country": "España", 
        "lat": 42.7037985387412, 
        "lon": -0.272738257690051, 
        "name": "Aramòn Panticosa", 
        "state": "Aragón"
    }, 
    "3545067": {
        "country": "France", 
        "lat": 42.6744989431543, 
        "lon": 2.25686653063482, 
        "name": "Mosset - Col de Jau", 
        "state": "Occitanie"
    }, 
    "3545070": {
        "country": "France", 
        "lat": 45.5151687851587, 
        "lon": 2.83977485366339, 
        "name": "Super Besse", 
        "state": "Auvergne-Rhône-Alpes"
    }, 
    "3545191": {
        "country": "Norge", 
        "lat": 63.2595208046499, 
        "lon": 9.72170311367721, 
        "name": "Knyken Skisenter", 
        "state": "Trøndelag"
    }, 
    "3545199": {
        "country": "France", 
        "lat": 42.0040085177894, 
        "lon": 9.12694873911589, 
        "name": "Val d'Ese", 
        "state": "Corse"
    }, 
    "3545207": {
        "country": "Italia", 
        "lat": 44.2700093533024, 
        "lon": 7.79908428954206, 
        "name": "Frabosa Soprana", 
        "state": "Piemonte"
    }, 
    "3545221": {
        "country": "France", 
        "lat": 44.1853061414154, 
        "lon": 7.14850146387229, 
        "name": "Isola 2000", 
        "state": "Provence-Alpes-Côte d'Azur"
    }, 
    "3545224": {
        "country": "Italia", 
        "lat": 44.1712038128304, 
        "lon": 7.57798971455101, 
        "name": "Riserva Bianca", 
        "state": "Piemonte"
    }, 
    "3545276": {
        "country": "France", 
        "lat": 45.3341998615632, 
        "lon": 6.57756807477128, 
        "name": "Les Trois Vallées", 
        "state": "Auvergne-Rhône-Alpes"
    }, 
    "3545279": {
        "country": "Italia", 
        "lat": 45.6844619515118, 
        "lon": 7.31012021534696, 
        "name": "Pila", 
        "state": "Valle d'Aosta/Vallée d'Aoste"
    }, 
    "3557914": {
        "country": "Österreich", 
        "lat": 47.7173066878655, 
        "lon": 13.2370083529664, 
        "name": "Gaißau -Hintersee", 
        "state": "Salzburg"
    }, 
    "3557915": {
        "country": "Deutschland", 
        "lat": 47.6403242529727, 
        "lon": 13.0826891882075, 
        "name": "Rossfeld", 
        "state": "Bayern"
    }, 
    "356040885": {
        "country": "United States of America", 
        "lat": 39.9776307967053, 
        "lon": -105.92766739751, 
        "name": "Biathlon Range", 
        "state": "Colorado"
    }, 
    "3569116": {
        "country": "Österreich", 
        "lat": 47.463017461978, 
        "lon": 13.283373006488, 
        "name": "Bergbahnen Werfenweng", 
        "state": "Salzburg"
    }, 
    "3578610": {
        "country": "Schweiz/Suisse/Svizzera/Svizra", 
        "lat": 46.8455146641665, 
        "lon": 9.21801888647967, 
        "name": "Laax", 
        "state": "Graubünden/Grigioni/Grischun"
    }, 
    "3578623": {
        "country": "Schweiz/Suisse/Svizzera/Svizra", 
        "lat": 46.7483665314498, 
        "lon": 8.22006650351167, 
        "name": "Meiringen - Hasliberg", 
        "state": "Bern/Berne"
    }, 
    "3584136": {
        "country": "Россия", 
        "lat": 53.3901082313354, 
        "lon": 50.1826238913226, 
        "name": "Горнолыжный комплекс \"СОК Красная Глинка\"", 
        "state": "Самарская область"
    }, 
    "3584137": {
        "country": "Россия", 
        "lat": 53.3661023770189, 
        "lon": 50.2448855118603, 
        "name": "УСЦ \"Чайка\"", 
        "state": "Самарская область"
    }, 
    "3584930": {
        "country": "France", 
        "lat": 44.5353922648357, 
        "lon": 6.62148766830461, 
        "name": "Crévoux", 
        "state": "Provence-Alpes-Côte d'Azur"
    }, 
    "3585655": {
        "country": "Norge", 
        "lat": 60.4639743505475, 
        "lon": 11.0715638980246, 
        "name": "Hurdal Skisenter", 
        "state": "Akershus"
    }, 
    "3587562": {
        "country": "Maroc ⵍⵎⵖⵔⵉⴱ المغرب", 
        "lat": 31.1912643971397, 
        "lon": -7.86098560344403, 
        "name": "Oukaïmeden", 
        "state": "Marrakech-Safi ⵎⵕⵕⴰⴽⵛ-ⴰⵙⴼⵉ مراكش-أسفي"
    }, 
    "3603417": {
        "country": "Österreich", 
        "lat": 47.4743390785218, 
        "lon": 10.6612146639256, 
        "name": "Hahnenkamm", 
        "state": "Tirol"
    }, 
    "3604785": {
        "country": "Česko", 
        "lat": 50.7285459757361, 
        "lon": 14.9994494049339, 
        "name": "Ještěd", 
        "state": "Severovýchod"
    }, 
    "3609152": {
        "country": "Schweiz/Suisse/Svizzera/Svizra", 
        "lat": 46.0717286594111, 
        "lon": 7.92006668878745, 
        "name": "Saas Fee", 
        "state": "Valais/Wallis"
    }, 
    "3619015": {
        "country": "France", 
        "lat": 44.5909890560514, 
        "lon": 6.34615630334451, 
        "name": "Réallon", 
        "state": "Provence-Alpes-Côte d'Azur"
    }, 
    "365811680": {
        "country": "Polska", 
        "lat": 50.7544024992909, 
        "lon": 15.7280542829732, 
        "name": "Kompleks Narciarski Kopa w Karpaczu", 
        "state": "województwo dolnośląskie"
    },